% program   : RTKPOST ver.2.4.2
% inp file  : F:\HCU\Lehre\Integrated Navigation\Int-Nav-2020\Tut1\Daten\R10\r10.20o
% inp file  : F:\HCU\Lehre\Integrated Navigation\Int-Nav-2020\Tut1\Data\Reference\ref.20o
% inp file  : F:\HCU\Lehre\Integrated Navigation\Int-Nav-2020\Tut1\Data\Reference\ref.20n
% obs start : 2020/05/12 11:04:51.0 GPST (week2105 212691.0s)
% obs end   : 2020/05/12 11:55:16.0 GPST (week2105 215716.0s)
% pos mode  : kinematic
% freqs     : L1+L2+L5
% solution  : forward
% elev mask : 13.0 deg
% dynamics  : off
% tidecorr  : off
% ionos opt : off
% tropo opt : off
% ephemeris : broadcast
% navi sys  : gps galileo
% amb res   : continuous
% val thres : 3.0
% antenna1  :                       ( 0.0000  0.0000  0.0000)
% antenna2  :                       ( 0.0000  0.0000  0.0000)
% ref pos   : 53.540377012,  10.004842549,   78.9664
%
% (lat/lon/height=WGS84/ellipsoidal,Q=1:fix,2:float,3:sbas,4:dgps,5:single,6:ppp,ns=# of satellites)
%  GPST                , latitude(deg),longitude(deg), height(m),  Q, ns,  sdn(m),  sde(m),  sdu(m), sdne(m), sdeu(m), sdun(m),age(s), ratio
2020/05/12 11:04:51.000,  53.540408082,  10.005948765,   51.8319,  2,  5,  1.3069,  0.5751,  2.2912,  0.5984,  0.9139,  1.4840,  6.00,   1.7
2020/05/12 11:04:52.000,  53.540410372,  10.005945195,   52.0733,  2,  5,  0.9281,  0.4081,  1.6260,  0.4248,  0.6483,  1.0537,  7.00,   1.3
2020/05/12 11:04:53.000,  53.540409668,  10.005946758,   52.4587,  2,  5,  0.7588,  0.3336,  1.3291,  0.3474,  0.5300,  0.8614,  8.00,   1.5
2020/05/12 11:04:54.000,  53.540409612,  10.005947036,   53.1418,  2,  5,  0.6576,  0.2892,  1.1517,  0.3011,  0.4594,  0.7464,  9.00,   1.3
2020/05/12 11:04:55.000,  53.540406863,  10.005947536,   52.7461,  2,  5,  0.5884,  0.2589,  1.0305,  0.2694,  0.4111,  0.6678, 10.00,   1.6
2020/05/12 11:04:56.000,  53.540405108,  10.005945970,   52.2160,  2,  5,  0.5373,  0.2365,  0.9410,  0.2461,  0.3755,  0.6097, 11.00,   1.6
2020/05/12 11:04:57.000,  53.540404945,  10.005946879,   52.2548,  2,  5,  0.4975,  0.2191,  0.8715,  0.2279,  0.3479,  0.5645, 12.00,   1.6
2020/05/12 11:04:58.000,  53.540406181,  10.005946029,   52.2126,  2,  5,  0.4656,  0.2052,  0.8155,  0.2133,  0.3257,  0.5282, 13.00,   1.5
2020/05/12 11:04:59.000,  53.540406674,  10.005945778,   52.1653,  2,  5,  0.4391,  0.1937,  0.7693,  0.2012,  0.3073,  0.4981, 14.00,   1.5
2020/05/12 11:05:00.000,  53.540407252,  10.005946355,   52.2005,  2,  5,  0.4139,  0.1830,  0.7256,  0.1896,  0.2899,  0.4691,  0.00,   1.5
2020/05/12 11:05:01.000,  53.540407236,  10.005947140,   52.2802,  2,  5,  0.3937,  0.1744,  0.6905,  0.1804,  0.2760,  0.4460,  1.00,   1.4
2020/05/12 11:05:02.000,  53.540406884,  10.005946959,   52.2708,  2,  5,  0.3763,  0.1670,  0.6604,  0.1724,  0.2640,  0.4262,  2.00,   1.4
2020/05/12 11:05:03.000,  53.540406542,  10.005947744,   52.2180,  2,  5,  0.3612,  0.1604,  0.6339,  0.1655,  0.2535,  0.4089,  3.00,   1.4
2020/05/12 11:05:04.000,  53.540407161,  10.005948002,   52.2715,  2,  5,  0.3477,  0.1546,  0.6105,  0.1593,  0.2442,  0.3936,  4.00,   1.4
2020/05/12 11:05:05.000,  53.540406860,  10.005947454,   52.1779,  2,  5,  0.3357,  0.1494,  0.5895,  0.1539,  0.2359,  0.3799,  5.00,   1.3
2020/05/12 11:05:06.000,  53.540406375,  10.005946755,   52.0819,  2,  5,  0.3249,  0.1447,  0.5706,  0.1489,  0.2284,  0.3676,  6.00,   1.3
2020/05/12 11:05:07.000,  53.540406692,  10.005945825,   51.9474,  2,  5,  0.3151,  0.1405,  0.5536,  0.1445,  0.2216,  0.3565,  7.00,   1.3
2020/05/12 11:05:08.000,  53.540407244,  10.005945186,   51.9517,  2,  5,  0.3062,  0.1366,  0.5380,  0.1404,  0.2155,  0.3463,  8.00,   1.3
2020/05/12 11:05:09.000,  53.540407495,  10.005945028,   51.9984,  2,  5,  0.2980,  0.1331,  0.5238,  0.1367,  0.2099,  0.3370,  9.00,   1.3
2020/05/12 11:05:10.000,  53.540407726,  10.005944204,   51.8920,  2,  5,  0.2905,  0.1298,  0.5107,  0.1333,  0.2047,  0.3285, 10.00,   1.2
2020/05/12 11:05:11.000,  53.540408189,  10.005943625,   51.9287,  2,  5,  0.2836,  0.1269,  0.4987,  0.1302,  0.2000,  0.3207, 11.00,   1.2
2020/05/12 11:05:12.000,  53.540408236,  10.005943993,   51.9265,  2,  5,  0.2773,  0.1241,  0.4876,  0.1273,  0.1956,  0.3134, 12.00,   1.2
2020/05/12 11:05:13.000,  53.540407423,  10.005943004,   51.7926,  2,  5,  0.2714,  0.1216,  0.4773,  0.1246,  0.1916,  0.3067, 13.00,   1.1
2020/05/12 11:05:14.000,  53.540407411,  10.005942294,   51.6262,  2,  5,  0.2659,  0.1193,  0.4678,  0.1221,  0.1879,  0.3005, 14.00,   1.0
2020/05/12 11:05:15.000,  53.540407444,  10.005941340,   51.5046,  2,  5,  0.2560,  0.1155,  0.4510,  0.1174,  0.1810,  0.2887,  0.00,   1.1
2020/05/12 11:05:16.000,  53.540407973,  10.005941403,   51.5923,  2,  5,  0.2487,  0.1130,  0.4394,  0.1140,  0.1764,  0.2801,  1.00,   1.1
2020/05/12 11:05:17.000,  53.540407816,  10.005941166,   51.5211,  2,  5,  0.2424,  0.1107,  0.4291,  0.1111,  0.1724,  0.2726,  2.00,   1.0
2020/05/12 11:05:18.000,  53.540407772,  10.005941530,   51.5352,  2,  5,  0.2368,  0.1086,  0.4199,  0.1085,  0.1688,  0.2660,  3.00,   1.0
2020/05/12 11:05:19.000,  53.540408090,  10.005941404,   51.5421,  2,  5,  0.2318,  0.1067,  0.4116,  0.1062,  0.1655,  0.2603,  4.00,   1.1
2020/05/12 11:05:20.000,  53.540408028,  10.005941860,   51.5194,  2,  5,  0.2273,  0.1049,  0.4041,  0.1041,  0.1625,  0.2551,  5.00,   1.1
2020/05/12 11:05:21.000,  53.540408230,  10.005942057,   51.5628,  2,  5,  0.2233,  0.1033,  0.3972,  0.1023,  0.1598,  0.2505,  6.00,   1.1
2020/05/12 11:05:22.000,  53.540408478,  10.005942413,   51.6444,  2,  5,  0.2196,  0.1017,  0.3908,  0.1006,  0.1573,  0.2463,  7.00,   1.1
2020/05/12 11:05:23.000,  53.540408725,  10.005943150,   51.7731,  2,  5,  0.2162,  0.1003,  0.3849,  0.0991,  0.1550,  0.2424,  8.00,   1.1
2020/05/12 11:05:24.000,  53.540408942,  10.005943721,   51.8574,  2,  5,  0.2130,  0.0989,  0.3795,  0.0977,  0.1529,  0.2388,  9.00,   1.1
2020/05/12 11:05:25.000,  53.540408781,  10.005943869,   51.8491,  2,  5,  0.2101,  0.0977,  0.3744,  0.0963,  0.1509,  0.2355, 10.00,   1.1
2020/05/12 11:05:26.000,  53.540408951,  10.005944526,   51.9743,  2,  5,  0.2074,  0.0965,  0.3696,  0.0951,  0.1491,  0.2324, 11.00,   1.1
2020/05/12 11:05:27.000,  53.540409280,  10.005944490,   51.9978,  2,  5,  0.2048,  0.0954,  0.3652,  0.0940,  0.1474,  0.2295, 12.00,   1.1
2020/05/12 11:05:28.000,  53.540409503,  10.005944640,   52.0136,  2,  5,  0.2025,  0.0944,  0.3611,  0.0929,  0.1458,  0.2269, 13.00,   1.1
2020/05/12 11:05:29.000,  53.540409794,  10.005944882,   52.0760,  2,  5,  0.2002,  0.0934,  0.3572,  0.0920,  0.1444,  0.2244, 14.00,   1.1
2020/05/12 11:05:30.000,  53.540409846,  10.005944998,   52.1477,  2,  5,  0.1925,  0.0904,  0.3439,  0.0882,  0.1388,  0.2149,  0.00,   1.1
2020/05/12 11:05:31.000,  53.540409626,  10.005945348,   52.1678,  2,  5,  0.1875,  0.0891,  0.3365,  0.0858,  0.1359,  0.2088,  1.00,   1.0
2020/05/12 11:05:32.000,  53.540409610,  10.005945616,   52.1961,  2,  5,  0.1833,  0.0878,  0.3302,  0.0838,  0.1334,  0.2037,  2.00,   1.0
2020/05/12 11:05:33.000,  53.540409214,  10.005945603,   52.1624,  2,  5,  0.1797,  0.0867,  0.3247,  0.0821,  0.1313,  0.1994,  3.00,   1.0
2020/05/12 11:05:34.000,  53.540409187,  10.005946029,   52.2089,  2,  5,  0.1767,  0.0857,  0.3199,  0.0807,  0.1294,  0.1958,  4.00,   1.1
2020/05/12 11:05:35.000,  53.540409273,  10.005946178,   52.2463,  2,  5,  0.1741,  0.0847,  0.3157,  0.0795,  0.1277,  0.1928,  5.00,   1.1
2020/05/12 11:05:36.000,  53.540409316,  10.005946463,   52.2852,  2,  5,  0.1718,  0.0838,  0.3119,  0.0785,  0.1263,  0.1901,  6.00,   1.1
2020/05/12 11:05:37.000,  53.540409252,  10.005946432,   52.2746,  2,  5,  0.1698,  0.0830,  0.3086,  0.0776,  0.1250,  0.1878,  7.00,   1.1
2020/05/12 11:05:38.000,  53.540409229,  10.005946398,   52.3106,  2,  5,  0.1680,  0.0823,  0.3055,  0.0768,  0.1238,  0.1858,  8.00,   1.1
2020/05/12 11:05:39.000,  53.540409326,  10.005946317,   52.3198,  2,  5,  0.1664,  0.0816,  0.3027,  0.0760,  0.1228,  0.1840,  9.00,   1.1
2020/05/12 11:05:40.000,  53.540409306,  10.005946125,   52.3059,  2,  5,  0.1649,  0.0810,  0.3002,  0.0754,  0.1218,  0.1823, 10.00,   1.1
2020/05/12 11:05:41.000,  53.540409184,  10.005945968,   52.3039,  2,  5,  0.1636,  0.0804,  0.2979,  0.0748,  0.1210,  0.1809, 11.00,   1.1
2020/05/12 11:05:42.000,  53.540409052,  10.005945918,   52.3264,  2,  5,  0.1624,  0.0799,  0.2958,  0.0743,  0.1202,  0.1796, 12.00,   1.1
2020/05/12 11:05:43.000,  53.540409194,  10.005945598,   52.2976,  2,  5,  0.1613,  0.0794,  0.2939,  0.0739,  0.1195,  0.1784, 13.00,   1.1
2020/05/12 11:05:44.000,  53.540408972,  10.005945247,   52.2379,  2,  5,  0.1603,  0.0790,  0.2922,  0.0735,  0.1189,  0.1773, 14.00,   1.1
2020/05/12 11:05:45.000,  53.540408884,  10.005944774,   52.2204,  2,  5,  0.1532,  0.0762,  0.2798,  0.0699,  0.1136,  0.1685,  0.00,   1.1
2020/05/12 11:05:46.000,  53.540408662,  10.005944241,   52.1578,  2,  5,  0.1493,  0.0753,  0.2745,  0.0681,  0.1115,  0.1637,  1.00,   1.1
2020/05/12 11:05:47.000,  53.540408595,  10.005944090,   52.1250,  2,  4,  0.1480,  0.0775,  0.2767,  0.0698,  0.1154,  0.1640,  2.00,   1.3
2020/05/12 11:05:48.000,  53.540408574,  10.005943740,   52.1056,  2,  5,  0.1472,  0.0771,  0.2751,  0.0695,  0.1150,  0.1632,  3.00,   1.2
2020/05/12 11:05:49.000,  53.540408453,  10.005943440,   52.0804,  2,  5,  0.1464,  0.0760,  0.2729,  0.0693,  0.1137,  0.1624,  4.00,   1.2
2020/05/12 11:05:50.000,  53.540408537,  10.005943115,   52.0743,  2,  5,  0.1456,  0.0753,  0.2712,  0.0690,  0.1128,  0.1617,  5.00,   1.2
2020/05/12 11:05:51.000,  53.540408511,  10.005942698,   52.0407,  2,  5,  0.1450,  0.0747,  0.2697,  0.0688,  0.1121,  0.1611,  6.00,   1.1
2020/05/12 11:05:52.000,  53.540408368,  10.005942669,   52.0522,  2,  4,  0.1443,  0.0781,  0.2713,  0.0685,  0.1159,  0.1604,  7.00,   1.2
2020/05/12 11:05:53.000,  53.540408302,  10.005942569,   52.0577,  2,  4,  0.1438,  0.0789,  0.2710,  0.0682,  0.1168,  0.1598,  8.00,   1.2
2020/05/12 11:05:54.000,  53.540408324,  10.005942782,   52.0856,  2,  4,  0.1433,  0.0799,  0.2710,  0.0680,  0.1179,  0.1593,  9.00,   1.2
2020/05/12 11:05:55.000,  53.540408152,  10.005942514,   52.0720,  2,  5,  0.1428,  0.0804,  0.2707,  0.0679,  0.1184,  0.1589, 10.00,   1.2
2020/05/12 11:05:56.000,  53.540408114,  10.005942385,   52.0835,  2,  5,  0.1424,  0.0772,  0.2675,  0.0679,  0.1148,  0.1586, 11.00,   1.2
2020/05/12 11:05:57.000,  53.540407886,  10.005942043,   52.0251,  2,  5,  0.1420,  0.0759,  0.2660,  0.0678,  0.1134,  0.1583, 12.00,   1.2
2020/05/12 11:05:58.000,  53.540407773,  10.005941787,   52.0066,  2,  5,  0.1418,  0.0751,  0.2649,  0.0677,  0.1126,  0.1581, 13.00,   1.2
2020/05/12 11:05:59.000,  53.540407712,  10.005941364,   51.9826,  2,  5,  0.1415,  0.0746,  0.2641,  0.0676,  0.1121,  0.1579, 14.00,   1.1
2020/05/12 11:06:00.000,  53.540407764,  10.005941127,   52.0083,  2,  5,  0.1371,  0.0711,  0.2544,  0.0654,  0.1070,  0.1528,  0.00,   1.1
2020/05/12 11:06:01.000,  53.540407639,  10.005941278,   52.0475,  2,  5,  0.1363,  0.0704,  0.2528,  0.0652,  0.1062,  0.1521,  1.00,   1.1
2020/05/12 11:06:02.000,  53.540407446,  10.005941271,   52.0632,  2,  5,  0.1357,  0.0699,  0.2513,  0.0649,  0.1055,  0.1514,  2.00,   1.1
2020/05/12 11:06:03.000,  53.540407308,  10.005941469,   52.1152,  2,  5,  0.1350,  0.0694,  0.2500,  0.0646,  0.1049,  0.1507,  3.00,   1.1
2020/05/12 11:06:04.000,  53.540407154,  10.005941637,   52.1760,  2,  5,  0.1344,  0.0690,  0.2487,  0.0644,  0.1044,  0.1501,  4.00,   1.1
2020/05/12 11:06:05.000,  53.540406825,  10.005941904,   52.2018,  2,  5,  0.1339,  0.0687,  0.2476,  0.0642,  0.1039,  0.1495,  5.00,   1.2
2020/05/12 11:06:06.000,  53.540406739,  10.005942326,   52.2599,  2,  5,  0.1334,  0.0683,  0.2466,  0.0639,  0.1035,  0.1490,  6.00,   1.2
2020/05/12 11:06:07.000,  53.540406726,  10.005942938,   52.3451,  2,  5,  0.1330,  0.0680,  0.2456,  0.0638,  0.1031,  0.1486,  7.00,   1.3
2020/05/12 11:06:08.000,  53.540406563,  10.005943290,   52.4208,  2,  5,  0.1326,  0.0678,  0.2448,  0.0636,  0.1028,  0.1482,  8.00,   1.3
2020/05/12 11:06:09.000,  53.540406450,  10.005943352,   52.4558,  2,  5,  0.1323,  0.0676,  0.2441,  0.0634,  0.1025,  0.1478,  9.00,   1.3
2020/05/12 11:06:10.000,  53.540406413,  10.005943337,   52.4897,  2,  5,  0.1320,  0.0674,  0.2435,  0.0633,  0.1023,  0.1475, 10.00,   1.3
2020/05/12 11:06:11.000,  53.540406514,  10.005943290,   52.5150,  2,  5,  0.1318,  0.0757,  0.2500,  0.0637,  0.1117,  0.1477, 11.00,   1.1
2020/05/12 11:06:12.000,  53.540406441,  10.005943197,   52.5138,  2,  4,  0.1316,  0.0774,  0.2512,  0.0637,  0.1137,  0.1476, 12.00,   1.2
2020/05/12 11:06:13.000,  53.540406377,  10.005943172,   52.5084,  2,  4,  0.1315,  0.0790,  0.2524,  0.0637,  0.1155,  0.1475, 13.00,   1.2
2020/05/12 11:06:14.000,  53.540406361,  10.005943000,   52.5059,  2,  4,  0.1315,  0.0807,  0.2538,  0.0638,  0.1175,  0.1475, 14.00,   1.2
2020/05/12 11:06:15.000,  53.540406451,  10.005942459,   52.4907,  2,  4,  0.1269,  0.0668,  0.2357,  0.0614,  0.1010,  0.1422,  0.00,   1.2
2020/05/12 11:06:16.000,  53.540406408,  10.005942371,   52.4606,  2,  4,  0.1264,  0.0668,  0.2348,  0.0612,  0.1010,  0.1416,  1.00,   1.2
2020/05/12 11:06:17.000,  53.540406531,  10.005942347,   52.4388,  2,  4,  0.1258,  0.0670,  0.2342,  0.0610,  0.1011,  0.1411,  2.00,   1.2
2020/05/12 11:06:18.000,  53.540406660,  10.005942373,   52.4291,  2,  4,  0.1254,  0.0673,  0.2337,  0.0608,  0.1014,  0.1406,  3.00,   1.1
2020/05/12 11:06:19.000,  53.540406783,  10.005942244,   52.4106,  2,  4,  0.1250,  0.0678,  0.2335,  0.0606,  0.1018,  0.1402,  4.00,   1.1
2020/05/12 11:06:20.000,  53.540406789,  10.005942231,   52.3880,  2,  4,  0.1246,  0.0684,  0.2334,  0.0605,  0.1025,  0.1398,  5.00,   1.1
2020/05/12 11:06:21.000,  53.540406912,  10.005942260,   52.3801,  2,  4,  0.1243,  0.0691,  0.2335,  0.0604,  0.1033,  0.1395,  6.00,   1.1
2020/05/12 11:06:22.000,  53.540406976,  10.005942222,   52.3640,  2,  4,  0.1240,  0.0700,  0.2339,  0.0604,  0.1043,  0.1393,  7.00,   1.1
2020/05/12 11:06:23.000,  53.540407009,  10.005942077,   52.3163,  2,  4,  0.1238,  0.0711,  0.2344,  0.0603,  0.1055,  0.1391,  8.00,   1.1
2020/05/12 11:06:24.000,  53.540407068,  10.005942083,   52.3030,  2,  4,  0.1236,  0.0722,  0.2352,  0.0603,  0.1068,  0.1390,  9.00,   1.0
2020/05/12 11:06:25.000,  53.540407159,  10.005941997,   52.2722,  2,  4,  0.1235,  0.0735,  0.2361,  0.0603,  0.1083,  0.1389, 10.00,   1.0
2020/05/12 11:06:26.000,  53.540407109,  10.005942086,   52.2622,  2,  4,  0.1235,  0.0750,  0.2372,  0.0604,  0.1099,  0.1389, 11.00,   1.0
2020/05/12 11:06:27.000,  53.540407198,  10.005941919,   52.2298,  2,  4,  0.1235,  0.0765,  0.2385,  0.0605,  0.1117,  0.1389, 12.00,   1.0
2020/05/12 11:06:28.000,  53.540407271,  10.005941891,   52.2065,  2,  4,  0.1235,  0.0781,  0.2400,  0.0606,  0.1136,  0.1390, 13.00,   1.0
2020/05/12 11:06:29.000,  53.540407332,  10.005941906,   52.2107,  2,  4,  0.1236,  0.0799,  0.2417,  0.0607,  0.1156,  0.1392, 14.00,   1.0
2020/05/12 11:06:30.000,  53.540407327,  10.005941418,   52.1966,  2,  4,  0.1189,  0.0657,  0.2228,  0.0581,  0.0987,  0.1337,  0.00,   1.1
2020/05/12 11:06:31.000,  53.540407495,  10.005941399,   52.2025,  2,  4,  0.1184,  0.0657,  0.2222,  0.0580,  0.0987,  0.1332,  1.00,   1.1
2020/05/12 11:06:32.000,  53.540407609,  10.005941339,   52.2104,  2,  4,  0.1180,  0.0659,  0.2217,  0.0578,  0.0988,  0.1328,  2.00,   1.1
2020/05/12 11:06:33.000,  53.540407666,  10.005941270,   52.2035,  2,  4,  0.1176,  0.0662,  0.2214,  0.0577,  0.0992,  0.1324,  3.00,   1.1
2020/05/12 11:06:34.000,  53.540407725,  10.005941216,   52.1927,  2,  4,  0.1173,  0.0667,  0.2214,  0.0576,  0.0997,  0.1321,  4.00,   1.2
2020/05/12 11:06:35.000,  53.540407935,  10.005941226,   52.2051,  2,  4,  0.1171,  0.0674,  0.2216,  0.0575,  0.1004,  0.1319,  5.00,   1.2
2020/05/12 11:06:36.000,  53.540407909,  10.005941139,   52.1832,  2,  4,  0.1169,  0.0682,  0.2219,  0.0575,  0.1013,  0.1317,  6.00,   1.2
2020/05/12 11:06:37.000,  53.540408231,  10.005941180,   52.2222,  2,  4,  0.1167,  0.0691,  0.2225,  0.0575,  0.1023,  0.1315,  7.00,   1.2
2020/05/12 11:06:38.000,  53.540408277,  10.005941205,   52.2258,  2,  4,  0.1166,  0.0702,  0.2232,  0.0575,  0.1035,  0.1315,  8.00,   1.2
2020/05/12 11:06:39.000,  53.540408368,  10.005941025,   52.2157,  2,  4,  0.1166,  0.0714,  0.2242,  0.0575,  0.1049,  0.1315,  9.00,   1.3
2020/05/12 11:06:40.000,  53.540408420,  10.005941050,   52.2023,  2,  4,  0.1166,  0.0727,  0.2254,  0.0576,  0.1065,  0.1315, 10.00,   1.3
2020/05/12 11:06:41.000,  53.540408478,  10.005940877,   52.1939,  2,  4,  0.1166,  0.0742,  0.2267,  0.0577,  0.1081,  0.1316, 11.00,   1.3
2020/05/12 11:06:42.000,  53.540408439,  10.005940834,   52.1748,  2,  4,  0.1167,  0.0758,  0.2283,  0.0579,  0.1100,  0.1318, 12.00,   1.3
2020/05/12 11:06:43.000,  53.540408532,  10.005940740,   52.1648,  2,  4,  0.1169,  0.0774,  0.2300,  0.0580,  0.1120,  0.1320, 13.00,   1.3
2020/05/12 11:06:44.000,  53.540408460,  10.005940525,   52.1155,  2,  4,  0.1171,  0.0792,  0.2319,  0.0582,  0.1141,  0.1323, 14.00,   1.4
2020/05/12 11:06:45.000,  53.540408614,  10.005940809,   52.1682,  2,  4,  0.1122,  0.0648,  0.2123,  0.0555,  0.0968,  0.1266,  0.00,   1.4
2020/05/12 11:06:46.000,  53.540408814,  10.005940837,   52.2031,  2,  4,  0.1118,  0.0648,  0.2118,  0.0553,  0.0968,  0.1262,  1.00,   1.4
2020/05/12 11:06:47.000,  53.540409020,  10.005940768,   52.2100,  2,  4,  0.1115,  0.0650,  0.2115,  0.0552,  0.0969,  0.1258,  2.00,   1.4
2020/05/12 11:06:48.000,  53.540409130,  10.005940900,   52.2491,  2,  4,  0.1112,  0.0653,  0.2114,  0.0551,  0.0973,  0.1255,  3.00,   1.4
2020/05/12 11:06:49.000,  53.540409234,  10.005940842,   52.2452,  2,  4,  0.1110,  0.0658,  0.2115,  0.0551,  0.0978,  0.1253,  4.00,   1.4
2020/05/12 11:06:50.000,  53.540409340,  10.005940914,   52.2631,  2,  4,  0.1108,  0.0665,  0.2118,  0.0550,  0.0986,  0.1252,  5.00,   1.4
2020/05/12 11:06:51.000,  53.540409496,  10.005940851,   52.2797,  2,  4,  0.1107,  0.0673,  0.2123,  0.0551,  0.0995,  0.1250,  6.00,   1.4
2020/05/12 11:06:52.000,  53.540409638,  10.005940893,   52.2937,  2,  4,  0.1106,  0.0683,  0.2130,  0.0551,  0.1006,  0.1250,  7.00,   1.4
2020/05/12 11:06:53.000,  53.540409748,  10.005940939,   52.3109,  2,  4,  0.1106,  0.0694,  0.2140,  0.0552,  0.1019,  0.1250,  8.00,   1.4
2020/05/12 11:06:54.000,  53.540409775,  10.005940937,   52.3081,  2,  4,  0.1106,  0.0706,  0.2151,  0.0553,  0.1033,  0.1251,  9.00,   1.4
2020/05/12 11:06:55.000,  53.540409871,  10.005941085,   52.3295,  2,  4,  0.1107,  0.0720,  0.2165,  0.0554,  0.1049,  0.1253, 10.00,   1.4
2020/05/12 11:06:56.000,  53.540409971,  10.005940991,   52.3244,  2,  4,  0.1108,  0.0735,  0.2180,  0.0556,  0.1066,  0.1255, 11.00,   1.4
2020/05/12 11:06:57.000,  53.540410011,  10.005941184,   52.3378,  2,  4,  0.1110,  0.0751,  0.2198,  0.0557,  0.1085,  0.1258, 12.00,   1.4
2020/05/12 11:06:58.000,  53.540410128,  10.005941053,   52.3318,  2,  4,  0.1112,  0.0768,  0.2217,  0.0560,  0.1106,  0.1261, 13.00,   1.4
2020/05/12 11:06:59.000,  53.540410137,  10.005941151,   52.3431,  2,  4,  0.1115,  0.0787,  0.2238,  0.0562,  0.1127,  0.1265, 14.00,   1.4
2020/05/12 11:07:00.000,  53.540410241,  10.005941112,   52.3075,  2,  4,  0.1065,  0.0639,  0.2035,  0.0533,  0.0951,  0.1205,  0.00,   1.4
2020/05/12 11:07:01.000,  53.540410225,  10.005941033,   52.2791,  2,  4,  0.1062,  0.0640,  0.2031,  0.0532,  0.0951,  0.1202,  1.00,   1.4
2020/05/12 11:07:02.000,  53.540410365,  10.005940947,   52.2599,  2,  4,  0.1059,  0.0642,  0.2029,  0.0531,  0.0953,  0.1199,  2.00,   1.4
2020/05/12 11:07:03.000,  53.540410428,  10.005940990,   52.2556,  2,  4,  0.1057,  0.0645,  0.2029,  0.0530,  0.0957,  0.1197,  3.00,   1.4
2020/05/12 11:07:04.000,  53.540410385,  10.005940870,   52.2212,  2,  4,  0.1055,  0.0651,  0.2031,  0.0530,  0.0962,  0.1195,  4.00,   1.4
2020/05/12 11:07:05.000,  53.540410337,  10.005940854,   52.1996,  2,  4,  0.1054,  0.0658,  0.2035,  0.0530,  0.0970,  0.1194,  5.00,   1.4
2020/05/12 11:07:06.000,  53.540410349,  10.005940833,   52.1691,  2,  4,  0.1053,  0.0666,  0.2042,  0.0531,  0.0980,  0.1194,  6.00,   1.4
2020/05/12 11:07:07.000,  53.540410337,  10.005940868,   52.1506,  2,  4,  0.1053,  0.0676,  0.2051,  0.0531,  0.0991,  0.1194,  7.00,   1.4
2020/05/12 11:07:08.000,  53.540410251,  10.005940783,   52.1056,  2,  4,  0.1054,  0.0687,  0.2062,  0.0532,  0.1004,  0.1195,  8.00,   1.4
2020/05/12 11:07:09.000,  53.540410254,  10.005940728,   52.0863,  2,  4,  0.1055,  0.0700,  0.2075,  0.0534,  0.1019,  0.1197,  9.00,   1.4
2020/05/12 11:07:10.000,  53.540410415,  10.005940809,   52.0669,  2,  4,  0.1056,  0.0714,  0.2090,  0.0536,  0.1035,  0.1199, 10.00,   1.4
2020/05/12 11:07:11.000,  53.540410406,  10.005940536,   52.0227,  2,  4,  0.1058,  0.0729,  0.2107,  0.0538,  0.1053,  0.1202, 11.00,   1.4
2020/05/12 11:07:12.000,  53.540410360,  10.005940541,   52.0001,  2,  4,  0.1061,  0.0746,  0.2126,  0.0540,  0.1073,  0.1206, 12.00,   1.4
2020/05/12 11:07:13.000,  53.540410393,  10.005940368,   51.9666,  2,  4,  0.1064,  0.0763,  0.2147,  0.0543,  0.1094,  0.1210, 13.00,   1.5
2020/05/12 11:07:14.000,  53.540410389,  10.005940448,   51.9530,  2,  4,  0.1068,  0.0782,  0.2170,  0.0546,  0.1116,  0.1215, 14.00,   1.4
2020/05/12 11:07:15.000,  53.540410681,  10.005940629,   51.9775,  2,  4,  0.1016,  0.0632,  0.1960,  0.0515,  0.0936,  0.1153,  0.00,   1.5
2020/05/12 11:07:16.000,  53.540410704,  10.005940388,   51.9264,  2,  4,  0.1013,  0.0633,  0.1956,  0.0514,  0.0936,  0.1150,  1.00,   1.5
2020/05/12 11:07:17.000,  53.540410770,  10.005940486,   51.9256,  2,  4,  0.1011,  0.0635,  0.1955,  0.0513,  0.0938,  0.1148,  2.00,   1.5
2020/05/12 11:07:18.000,  53.540410731,  10.005940354,   51.8869,  2,  4,  0.1009,  0.0639,  0.1956,  0.0513,  0.0942,  0.1146,  3.00,   1.5
2020/05/12 11:07:19.000,  53.540410577,  10.005940184,   51.8366,  2,  4,  0.1008,  0.0644,  0.1959,  0.0513,  0.0948,  0.1145,  4.00,   1.5
2020/05/12 11:07:20.000,  53.540410486,  10.005940018,   51.7889,  2,  4,  0.1007,  0.0651,  0.1965,  0.0513,  0.0956,  0.1145,  5.00,   1.5
2020/05/12 11:07:21.000,  53.540410448,  10.005940002,   51.7578,  2,  4,  0.1007,  0.0660,  0.1973,  0.0514,  0.0966,  0.1145,  6.00,   1.5
2020/05/12 11:07:22.000,  53.540410375,  10.005939863,   51.7225,  2,  4,  0.1008,  0.0670,  0.1983,  0.0515,  0.0978,  0.1146,  7.00,   1.6
2020/05/12 11:07:23.000,  53.540410410,  10.005939810,   51.6998,  2,  4,  0.1009,  0.0682,  0.1995,  0.0516,  0.0991,  0.1148,  8.00,   1.6
2020/05/12 11:07:24.000,  53.540410288,  10.005939609,   51.6509,  2,  4,  0.1011,  0.0695,  0.2009,  0.0518,  0.1007,  0.1150,  9.00,   1.6
2020/05/12 11:07:25.000,  53.540410282,  10.005939659,   51.6405,  2,  4,  0.1013,  0.0709,  0.2025,  0.0520,  0.1024,  0.1153, 10.00,   1.6
2020/05/12 11:07:26.000,  53.540410142,  10.005939578,   51.6170,  2,  4,  0.1015,  0.0725,  0.2044,  0.0523,  0.1042,  0.1157, 11.00,   1.7
2020/05/12 11:07:27.000,  53.540410078,  10.005939511,   51.5844,  2,  4,  0.1018,  0.0741,  0.2064,  0.0525,  0.1062,  0.1161, 12.00,   1.7
2020/05/12 11:07:28.000,  53.540410089,  10.005939523,   51.5877,  2,  4,  0.1022,  0.0759,  0.2086,  0.0528,  0.1083,  0.1166, 13.00,   1.7
2020/05/12 11:07:29.000,  53.540410029,  10.005939410,   51.5579,  2,  4,  0.1026,  0.0778,  0.2111,  0.0532,  0.1106,  0.1171, 14.00,   1.7
2020/05/12 11:07:30.000,  53.540409899,  10.005939004,   51.5276,  2,  4,  0.0973,  0.0626,  0.1894,  0.0499,  0.0922,  0.1107,  0.00,   1.8
2020/05/12 11:07:31.000,  53.540409783,  10.005938892,   51.4949,  2,  4,  0.0971,  0.0626,  0.1892,  0.0498,  0.0923,  0.1105,  1.00,   1.8
2020/05/12 11:07:32.000,  53.540409700,  10.005938869,   51.4773,  2,  4,  0.0969,  0.0628,  0.1891,  0.0498,  0.0925,  0.1103,  2.00,   1.8
2020/05/12 11:07:33.000,  53.540409719,  10.005938761,   51.4687,  2,  4,  0.0967,  0.0632,  0.1893,  0.0498,  0.0929,  0.1102,  3.00,   1.8
2020/05/12 11:07:34.000,  53.540409643,  10.005938672,   51.4527,  2,  4,  0.0967,  0.0638,  0.1897,  0.0498,  0.0936,  0.1101,  4.00,   1.9
2020/05/12 11:07:35.000,  53.540409629,  10.005938624,   51.4298,  2,  4,  0.0967,  0.0645,  0.1903,  0.0499,  0.0944,  0.1101,  5.00,   1.9
2020/05/12 11:07:36.000,  53.540409473,  10.005938498,   51.3954,  2,  4,  0.0967,  0.0654,  0.1912,  0.0499,  0.0954,  0.1102,  6.00,   1.9
2020/05/12 11:07:37.000,  53.540409276,  10.005938357,   51.3572,  2,  4,  0.0968,  0.0665,  0.1923,  0.0501,  0.0966,  0.1104,  7.00,   2.0
2020/05/12 11:07:38.000,  53.540409241,  10.005938660,   51.4046,  2,  5,  0.0969,  0.0675,  0.1934,  0.0502,  0.0978,  0.1106,  8.00,   1.0
2020/05/12 11:07:39.000,  53.540409196,  10.005938786,   51.4128,  2,  5,  0.0971,  0.0653,  0.1918,  0.0503,  0.0955,  0.1108,  9.00,   1.1
2020/05/12 11:07:40.000,  53.540409094,  10.005938887,   51.4229,  2,  5,  0.0974,  0.0648,  0.1917,  0.0505,  0.0949,  0.1111, 10.00,   1.1
2020/05/12 11:07:41.000,  53.540409048,  10.005939247,   51.4499,  2,  5,  0.0977,  0.0646,  0.1920,  0.0506,  0.0948,  0.1114, 11.00,   1.1
2020/05/12 11:07:42.000,  53.540409023,  10.005939687,   51.4930,  2,  5,  0.0981,  0.0728,  0.2000,  0.0512,  0.1041,  0.1121, 12.00,   1.0
2020/05/12 11:07:43.000,  53.540408863,  10.005940071,   51.5361,  2,  5,  0.0985,  0.0679,  0.1960,  0.0512,  0.0987,  0.1124, 13.00,   1.0
2020/05/12 11:07:44.000,  53.540408898,  10.005940644,   51.6063,  2,  5,  0.0990,  0.0662,  0.1951,  0.0514,  0.0969,  0.1129, 14.00,   1.0
2020/05/12 11:07:45.000,  53.540408681,  10.005940354,   51.6039,  2,  5,  0.0935,  0.0602,  0.1818,  0.0484,  0.0888,  0.1066,  0.00,   1.1
2020/05/12 11:07:46.000,  53.540408513,  10.005940393,   51.5888,  2,  5,  0.0933,  0.0595,  0.1809,  0.0484,  0.0881,  0.1064,  1.00,   1.1
2020/05/12 11:07:47.000,  53.540408559,  10.005940969,   51.6559,  2,  5,  0.0931,  0.0591,  0.1803,  0.0483,  0.0876,  0.1062,  2.00,   1.1
2020/05/12 11:07:48.000,  53.540408451,  10.005941137,   51.6789,  2,  5,  0.0930,  0.0589,  0.1799,  0.0483,  0.0873,  0.1061,  3.00,   1.2
2020/05/12 11:07:49.000,  53.540408390,  10.005941260,   51.6875,  2,  5,  0.0930,  0.0587,  0.1796,  0.0482,  0.0870,  0.1060,  4.00,   1.2
2020/05/12 11:07:50.000,  53.540408417,  10.005941276,   51.6973,  2,  5,  0.0930,  0.0585,  0.1794,  0.0482,  0.0868,  0.1060,  5.00,   1.2
2020/05/12 11:07:51.000,  53.540408348,  10.005941384,   51.7124,  2,  5,  0.0931,  0.0583,  0.1793,  0.0482,  0.0867,  0.1060,  6.00,   1.2
2020/05/12 11:07:52.000,  53.540408313,  10.005941244,   51.7047,  2,  5,  0.0932,  0.0582,  0.1794,  0.0483,  0.0866,  0.1061,  7.00,   1.2
2020/05/12 11:07:53.000,  53.540408240,  10.005941538,   51.7370,  2,  5,  0.0934,  0.0582,  0.1796,  0.0483,  0.0865,  0.1063,  8.00,   1.2
2020/05/12 11:07:54.000,  53.540408211,  10.005941665,   51.7605,  2,  5,  0.0936,  0.0582,  0.1799,  0.0484,  0.0865,  0.1065,  9.00,   1.3
2020/05/12 11:07:55.000,  53.540408197,  10.005941841,   51.7932,  2,  5,  0.0939,  0.0582,  0.1803,  0.0485,  0.0866,  0.1068, 10.00,   1.3
2020/05/12 11:07:56.000,  53.540408165,  10.005941851,   51.7996,  2,  5,  0.0943,  0.0582,  0.1808,  0.0487,  0.0867,  0.1072, 11.00,   1.3
2020/05/12 11:07:57.000,  53.540408148,  10.005942189,   51.8480,  2,  5,  0.0947,  0.0583,  0.1814,  0.0489,  0.0869,  0.1076, 12.00,   1.3
2020/05/12 11:07:58.000,  53.540408127,  10.005942603,   51.9051,  2,  5,  0.0951,  0.0584,  0.1821,  0.0491,  0.0871,  0.1081, 13.00,   1.3
2020/05/12 11:07:59.000,  53.540408079,  10.005942817,   51.9355,  2,  5,  0.0956,  0.0585,  0.1830,  0.0493,  0.0874,  0.1086, 14.00,   1.3
2020/05/12 11:08:00.000,  53.540408184,  10.005942664,   51.9611,  2,  5,  0.0900,  0.0555,  0.1720,  0.0465,  0.0826,  0.1023,  0.00,   1.3
2020/05/12 11:08:01.000,  53.540408238,  10.005942885,   51.9974,  2,  5,  0.0897,  0.0553,  0.1714,  0.0464,  0.0823,  0.1020,  1.00,   1.3
2020/05/12 11:08:02.000,  53.540408143,  10.005942895,   51.9982,  2,  5,  0.0895,  0.0551,  0.1710,  0.0463,  0.0820,  0.1017,  2.00,   1.3
2020/05/12 11:08:03.000,  53.540408146,  10.005943205,   52.0320,  2,  5,  0.0894,  0.0550,  0.1706,  0.0462,  0.0818,  0.1016,  3.00,   1.3
2020/05/12 11:08:04.000,  53.540408203,  10.005943359,   52.0692,  2,  5,  0.0893,  0.0549,  0.1704,  0.0462,  0.0816,  0.1015,  4.00,   1.3
2020/05/12 11:08:05.000,  53.540408239,  10.005943598,   52.1099,  2,  5,  0.0893,  0.0548,  0.1704,  0.0462,  0.0815,  0.1014,  5.00,   1.3
2020/05/12 11:08:06.000,  53.540408344,  10.005943702,   52.1380,  2,  5,  0.0894,  0.0547,  0.1704,  0.0462,  0.0815,  0.1015,  6.00,   1.2
2020/05/12 11:08:07.000,  53.540408411,  10.005943687,   52.1606,  2,  5,  0.0895,  0.0547,  0.1706,  0.0462,  0.0815,  0.1016,  7.00,   1.2
2020/05/12 11:08:08.000,  53.540408363,  10.005943548,   52.1597,  2,  5,  0.0897,  0.0547,  0.1708,  0.0463,  0.0815,  0.1018,  8.00,   1.2
2020/05/12 11:08:09.000,  53.540408441,  10.005943608,   52.1821,  2,  5,  0.0900,  0.0547,  0.1712,  0.0464,  0.0816,  0.1020,  9.00,   1.2
2020/05/12 11:08:10.000,  53.540408469,  10.005943605,   52.1886,  2,  5,  0.0903,  0.0548,  0.1718,  0.0465,  0.0818,  0.1024, 10.00,   1.2
2020/05/12 11:08:11.000,  53.540408517,  10.005943228,   52.1727,  2,  5,  0.0907,  0.0549,  0.1724,  0.0467,  0.0820,  0.1027, 11.00,   1.1
2020/05/12 11:08:12.000,  53.540408570,  10.005943368,   52.1980,  2,  5,  0.0911,  0.0550,  0.1731,  0.0469,  0.0822,  0.1032, 12.00,   1.1
2020/05/12 11:08:13.000,  53.540408628,  10.005943198,   52.1962,  2,  5,  0.0916,  0.0552,  0.1740,  0.0471,  0.0825,  0.1037, 13.00,   1.1
2020/05/12 11:08:14.000,  53.540408687,  10.005943255,   52.2131,  2,  5,  0.0921,  0.0554,  0.1749,  0.0474,  0.0829,  0.1043, 14.00,   1.1
2020/05/12 11:08:15.000,  53.540408935,  10.005942986,   52.2782,  2,  5,  0.0863,  0.0523,  0.1634,  0.0445,  0.0779,  0.0977,  0.00,   1.1
2020/05/12 11:08:16.000,  53.540408871,  10.005943185,   52.3048,  2,  5,  0.0859,  0.0521,  0.1628,  0.0443,  0.0775,  0.0972,  1.00,   1.0
2020/05/12 11:08:17.000,  53.540408842,  10.005943291,   52.3274,  2,  5,  0.0856,  0.0519,  0.1623,  0.0441,  0.0773,  0.0968,  2.00,   1.0
2020/05/12 11:08:18.000,  53.540408774,  10.005943362,   52.3393,  2,  5,  0.0854,  0.0518,  0.1619,  0.0440,  0.0771,  0.0966,  3.00,   1.1
2020/05/12 11:08:19.000,  53.540408725,  10.005943351,   52.3474,  2,  5,  0.0853,  0.0517,  0.1617,  0.0439,  0.0769,  0.0964,  4.00,   1.1
2020/05/12 11:08:20.000,  53.540408702,  10.005943357,   52.3517,  2,  5,  0.0853,  0.0517,  0.1617,  0.0439,  0.0768,  0.0963,  5.00,   1.1
2020/05/12 11:08:21.000,  53.540408678,  10.005943314,   52.3538,  2,  5,  0.0853,  0.0516,  0.1618,  0.0439,  0.0768,  0.0964,  6.00,   1.1
2020/05/12 11:08:22.000,  53.540408574,  10.005943194,   52.3499,  2,  5,  0.0855,  0.0517,  0.1620,  0.0440,  0.0769,  0.0965,  7.00,   1.2
2020/05/12 11:08:23.000,  53.540408533,  10.005943449,   52.3880,  2,  5,  0.0857,  0.0517,  0.1624,  0.0440,  0.0770,  0.0967,  8.00,   1.2
2020/05/12 11:08:24.000,  53.540408406,  10.005943359,   52.3803,  2,  5,  0.0859,  0.0518,  0.1628,  0.0442,  0.0771,  0.0969,  9.00,   1.2
2020/05/12 11:08:25.000,  53.540408368,  10.005943414,   52.3875,  2,  5,  0.0863,  0.0519,  0.1634,  0.0443,  0.0774,  0.0973, 10.00,   1.2
2020/05/12 11:08:26.000,  53.540408237,  10.005943297,   52.3689,  2,  5,  0.0867,  0.0520,  0.1642,  0.0445,  0.0776,  0.0977, 11.00,   1.2
2020/05/12 11:08:27.000,  53.540408173,  10.005943324,   52.3740,  2,  5,  0.0871,  0.0522,  0.1650,  0.0447,  0.0779,  0.0982, 12.00,   1.2
2020/05/12 11:08:28.000,  53.540408106,  10.005943155,   52.3526,  2,  5,  0.0877,  0.0524,  0.1660,  0.0450,  0.0783,  0.0988, 13.00,   1.2
2020/05/12 11:08:29.000,  53.540408124,  10.005943307,   52.3650,  2,  5,  0.0882,  0.0527,  0.1670,  0.0452,  0.0788,  0.0994, 14.00,   1.2
2020/05/12 11:08:30.000,  53.540408182,  10.005942823,   52.3027,  2,  5,  0.0820,  0.0495,  0.1549,  0.0421,  0.0734,  0.0923,  0.00,   1.3
2020/05/12 11:08:31.000,  53.540408059,  10.005942867,   52.2910,  2,  5,  0.0815,  0.0493,  0.1542,  0.0419,  0.0731,  0.0917,  1.00,   1.3
2020/05/12 11:08:32.000,  53.540407815,  10.005942428,   52.2331,  2,  5,  0.0811,  0.0491,  0.1536,  0.0416,  0.0728,  0.0912,  2.00,   1.3
2020/05/12 11:08:33.000,  53.540407801,  10.005942198,   52.2037,  2,  5,  0.0808,  0.0490,  0.1532,  0.0415,  0.0726,  0.0908,  3.00,   1.4
2020/05/12 11:08:34.000,  53.540407666,  10.005942243,   52.1960,  2,  5,  0.0807,  0.0489,  0.1530,  0.0414,  0.0724,  0.0906,  4.00,   1.4
2020/05/12 11:08:35.000,  53.540407784,  10.005942244,   52.2119,  2,  5,  0.0806,  0.0489,  0.1530,  0.0413,  0.0724,  0.0905,  5.00,   1.4
2020/05/12 11:08:36.000,  53.540407765,  10.005942192,   52.2062,  2,  5,  0.0807,  0.0489,  0.1531,  0.0413,  0.0724,  0.0905,  6.00,   1.4
2020/05/12 11:08:37.000,  53.540407726,  10.005942003,   52.1838,  2,  5,  0.0808,  0.0490,  0.1534,  0.0414,  0.0725,  0.0906,  7.00,   1.4
2020/05/12 11:08:38.000,  53.540407644,  10.005941746,   52.1487,  2,  5,  0.0810,  0.0491,  0.1538,  0.0415,  0.0726,  0.0908,  8.00,   1.4
2020/05/12 11:08:39.000,  53.540407752,  10.005941580,   52.1460,  2,  5,  0.0813,  0.0492,  0.1544,  0.0416,  0.0729,  0.0911,  9.00,   1.4
2020/05/12 11:08:40.000,  53.540407645,  10.005941275,   52.1111,  2,  5,  0.0817,  0.0493,  0.1550,  0.0418,  0.0731,  0.0915, 10.00,   1.4
2020/05/12 11:08:41.000,  53.540407601,  10.005940785,   52.0479,  2,  5,  0.0821,  0.0495,  0.1559,  0.0420,  0.0735,  0.0920, 11.00,   1.4
2020/05/12 11:08:42.000,  53.540407533,  10.005940640,   52.0184,  2,  5,  0.0827,  0.0497,  0.1568,  0.0422,  0.0738,  0.0925, 12.00,   1.4
2020/05/12 11:08:43.000,  53.540407577,  10.005940433,   51.9915,  2,  5,  0.0832,  0.0500,  0.1579,  0.0425,  0.0743,  0.0931, 13.00,   1.4
2020/05/12 11:08:44.000,  53.540407513,  10.005940004,   51.9352,  2,  5,  0.0840,  0.0682,  0.1767,  0.0456,  0.0956,  0.0960, 14.00,   1.0
2020/05/12 11:08:45.000,  53.540407483,  10.005940238,   51.9696,  2,  5,  0.0777,  0.0493,  0.1503,  0.0411,  0.0728,  0.0880,  0.00,   1.1
2020/05/12 11:08:46.000,  53.540407453,  10.005939901,   51.9193,  2,  5,  0.0776,  0.0485,  0.1494,  0.0411,  0.0719,  0.0879,  1.00,   1.1
2020/05/12 11:08:47.000,  53.540407358,  10.005939446,   51.8604,  2,  5,  0.0776,  0.0482,  0.1490,  0.0412,  0.0715,  0.0879,  2.00,   1.1
2020/05/12 11:08:48.000,  53.540407396,  10.005939026,   51.7955,  2,  5,  0.0776,  0.0480,  0.1489,  0.0412,  0.0713,  0.0879,  3.00,   1.0
2020/05/12 11:08:49.000,  53.540407365,  10.005938621,   51.7425,  2,  5,  0.0777,  0.0480,  0.1489,  0.0412,  0.0713,  0.0880,  4.00,   1.0
2020/05/12 11:08:50.000,  53.540407354,  10.005938151,   51.6778,  2,  5,  0.0779,  0.0479,  0.1491,  0.0413,  0.0713,  0.0882,  5.00,   1.0
2020/05/12 11:08:51.000,  53.540407334,  10.005938241,   51.6807,  2,  4,  0.0781,  0.0530,  0.1540,  0.0417,  0.0770,  0.0886,  6.00,   1.9
2020/05/12 11:08:52.000,  53.540407321,  10.005938361,   51.6689,  2,  4,  0.0784,  0.0544,  0.1556,  0.0420,  0.0787,  0.0890,  7.00,   1.9
2020/05/12 11:08:53.000,  53.540407276,  10.005938273,   51.6552,  2,  4,  0.0787,  0.0559,  0.1576,  0.0423,  0.0805,  0.0896,  8.00,   1.9
2020/05/12 11:08:54.000,  53.540407345,  10.005938345,   51.6569,  2,  4,  0.0792,  0.0577,  0.1598,  0.0427,  0.0826,  0.0901,  9.00,   1.9
2020/05/12 11:08:55.000,  53.540407308,  10.005937996,   51.6084,  2,  5,  0.0796,  0.0593,  0.1619,  0.0431,  0.0845,  0.0908, 10.00,   1.0
2020/05/12 11:08:56.000,  53.540407303,  10.005938163,   51.6137,  2,  4,  0.0802,  0.0614,  0.1648,  0.0436,  0.0871,  0.0915, 11.00,   1.9
2020/05/12 11:08:57.000,  53.540407282,  10.005938181,   51.6088,  2,  4,  0.0808,  0.0636,  0.1676,  0.0441,  0.0897,  0.0923, 12.00,   1.9
2020/05/12 11:08:58.000,  53.540407299,  10.005938157,   51.6107,  2,  4,  0.0814,  0.0658,  0.1707,  0.0447,  0.0924,  0.0932, 13.00,   1.9
2020/05/12 11:08:59.000,  53.540407203,  10.005938227,   51.5933,  2,  4,  0.0821,  0.0681,  0.1740,  0.0453,  0.0952,  0.0942, 14.00,   1.9
2020/05/12 11:09:00.000,  53.540407545,  10.005937899,   51.6014,  2,  4,  0.0757,  0.0488,  0.1470,  0.0406,  0.0720,  0.0860,  0.00,   2.0
2020/05/12 11:09:01.000,  53.540407509,  10.005937841,   51.5806,  2,  5,  0.0757,  0.0488,  0.1468,  0.0406,  0.0720,  0.0859,  1.00,   1.1
2020/05/12 11:09:02.000,  53.540407395,  10.005937887,   51.5766,  2,  5,  0.0756,  0.0479,  0.1460,  0.0406,  0.0709,  0.0859,  2.00,   1.1
2020/05/12 11:09:03.000,  53.540407337,  10.005937916,   51.5723,  2,  5,  0.0757,  0.0476,  0.1457,  0.0407,  0.0706,  0.0859,  3.00,   1.2
2020/05/12 11:09:04.000,  53.540407335,  10.005937945,   51.5733,  2,  5,  0.0758,  0.0474,  0.1457,  0.0407,  0.0705,  0.0861,  4.00,   1.2
2020/05/12 11:09:05.000,  53.540407273,  10.005938031,   51.5753,  2,  5,  0.0759,  0.0474,  0.1459,  0.0408,  0.0705,  0.0862,  5.00,   1.2
2020/05/12 11:09:06.000,  53.540407253,  10.005938249,   51.6164,  2,  5,  0.0762,  0.0474,  0.1462,  0.0409,  0.0706,  0.0865,  6.00,   1.2
2020/05/12 11:09:07.000,  53.540407224,  10.005938364,   51.6297,  2,  5,  0.0765,  0.0536,  0.1522,  0.0415,  0.0775,  0.0871,  7.00,   1.0
2020/05/12 11:09:08.000,  53.540407188,  10.005938501,   51.6402,  2,  5,  0.0769,  0.0509,  0.1503,  0.0415,  0.0746,  0.0874,  8.00,   1.0
2020/05/12 11:09:09.000,  53.540407135,  10.005938682,   51.6437,  2,  5,  0.0773,  0.0501,  0.1502,  0.0417,  0.0738,  0.0879,  9.00,   1.0
2020/05/12 11:09:10.000,  53.540407187,  10.005938937,   51.6821,  2,  5,  0.0778,  0.0498,  0.1506,  0.0419,  0.0736,  0.0884, 10.00,   1.0
2020/05/12 11:09:11.000,  53.540407046,  10.005938761,   51.6548,  2,  5,  0.0783,  0.0497,  0.1513,  0.0421,  0.0737,  0.0889, 11.00,   1.0
2020/05/12 11:09:12.000,  53.540407050,  10.005938948,   51.6720,  2,  5,  0.0789,  0.0497,  0.1522,  0.0424,  0.0739,  0.0896, 12.00,   1.0
2020/05/12 11:09:13.000,  53.540407014,  10.005938987,   51.6845,  2,  5,  0.0796,  0.0499,  0.1533,  0.0427,  0.0743,  0.0903, 13.00,   1.0
2020/05/12 11:09:14.000,  53.540406982,  10.005939148,   51.7067,  2,  5,  0.0803,  0.0501,  0.1546,  0.0430,  0.0747,  0.0910, 14.00,   1.0
2020/05/12 11:09:15.000,  53.540407276,  10.005939029,   51.7331,  2,  5,  0.0739,  0.0461,  0.1417,  0.0398,  0.0686,  0.0839,  0.00,   1.0
2020/05/12 11:09:16.000,  53.540407308,  10.005938994,   51.7271,  2,  5,  0.0738,  0.0458,  0.1413,  0.0398,  0.0683,  0.0838,  1.00,   1.1
2020/05/12 11:09:17.000,  53.540407248,  10.005939103,   51.7393,  2,  5,  0.0738,  0.0457,  0.1411,  0.0398,  0.0681,  0.0838,  2.00,   1.1
2020/05/12 11:09:18.000,  53.540407161,  10.005939160,   51.7473,  2,  5,  0.0738,  0.0456,  0.1411,  0.0399,  0.0680,  0.0839,  3.00,   1.1
2020/05/12 11:09:19.000,  53.540407179,  10.005939498,   51.7924,  2,  5,  0.0739,  0.0456,  0.1412,  0.0399,  0.0680,  0.0840,  4.00,   1.1
2020/05/12 11:09:20.000,  53.540407093,  10.005939675,   51.8040,  2,  5,  0.0741,  0.0456,  0.1415,  0.0400,  0.0681,  0.0842,  5.00,   1.0
2020/05/12 11:09:21.000,  53.540407062,  10.005939885,   51.8425,  2,  5,  0.0743,  0.0457,  0.1419,  0.0401,  0.0682,  0.0844,  6.00,   1.0
2020/05/12 11:09:22.000,  53.540407076,  10.005940356,   51.9015,  2,  5,  0.0747,  0.0458,  0.1424,  0.0403,  0.0684,  0.0847,  7.00,   1.1
2020/05/12 11:09:23.000,  53.540407445,  10.005940578,   51.9333,  2,  5,  0.0750,  0.0459,  0.1431,  0.0404,  0.0687,  0.0851,  8.00,   1.1
2020/05/12 11:09:24.000,  53.540414514,  10.005937656,   51.9512,  2,  4,  0.0755,  0.0558,  0.1528,  0.0417,  0.0799,  0.0864,  9.00,   1.4
2020/05/12 11:09:25.000,  53.540428854,  10.005930899,   51.9221,  2,  4,  0.0761,  0.0578,  0.1554,  0.0421,  0.0823,  0.0871, 10.00,   1.4
2020/05/12 11:09:26.000,  53.540447554,  10.005923280,   51.9646,  2,  4,  0.0766,  0.0599,  0.1582,  0.0426,  0.0848,  0.0879, 11.00,   1.4
2020/05/12 11:09:27.000,  53.540467845,  10.005916707,   51.9883,  2,  4,  0.0773,  0.0621,  0.1613,  0.0432,  0.0875,  0.0888, 12.00,   1.4
2020/05/12 11:09:28.000,  53.540486457,  10.005912513,   52.0020,  2,  4,  0.0780,  0.0645,  0.1645,  0.0438,  0.0903,  0.0898, 13.00,   1.5
2020/05/12 11:09:29.000,  53.540500550,  10.005909923,   51.9695,  2,  4,  0.0787,  0.0669,  0.1680,  0.0445,  0.0933,  0.0908, 14.00,   1.5
2020/05/12 11:09:30.000,  53.540509020,  10.005908301,   51.9110,  2,  4,  0.0721,  0.0466,  0.1397,  0.0394,  0.0689,  0.0822,  0.00,   1.5
2020/05/12 11:09:31.000,  53.540511712,  10.005908029,   51.9156,  2,  5,  0.0720,  0.0466,  0.1396,  0.0394,  0.0689,  0.0821,  1.00,   1.3
2020/05/12 11:09:32.000,  53.540511662,  10.005908030,   51.9145,  2,  5,  0.0720,  0.0456,  0.1387,  0.0394,  0.0679,  0.0821,  2.00,   1.4
2020/05/12 11:09:33.000,  53.540511660,  10.005907901,   51.9083,  2,  5,  0.0721,  0.0453,  0.1385,  0.0395,  0.0676,  0.0822,  3.00,   1.6
2020/05/12 11:09:34.000,  53.540512325,  10.005907591,   51.8848,  2,  5,  0.0722,  0.0452,  0.1386,  0.0395,  0.0675,  0.0823,  4.00,   1.7
2020/05/12 11:09:35.000,  53.540522764,  10.005907183,   51.8484,  2,  5,  0.0724,  0.0452,  0.1388,  0.0396,  0.0675,  0.0825,  5.00,   1.8
2020/05/12 11:09:36.000,  53.540542532,  10.005909693,   51.7008,  2,  5,  0.0727,  0.0452,  0.1392,  0.0397,  0.0676,  0.0828,  6.00,   1.9
2020/05/12 11:09:37.000,  53.540562857,  10.005924415,   51.6998,  2,  5,  0.0730,  0.0453,  0.1398,  0.0399,  0.0678,  0.0831,  7.00,   1.9
2020/05/12 11:09:38.000,  53.540581217,  10.005957507,   51.6595,  2,  5,  0.0734,  0.0455,  0.1404,  0.0401,  0.0680,  0.0835,  8.00,   2.0
2020/05/12 11:09:39.000,  53.540592473,  10.006017547,   51.6927,  2,  5,  0.0739,  0.0457,  0.1412,  0.0403,  0.0684,  0.0840,  9.00,   2.0
2020/05/12 11:09:40.000,  53.540592580,  10.006093701,   51.6973,  2,  5,  0.0744,  0.0459,  0.1422,  0.0405,  0.0687,  0.0845, 10.00,   2.0
2020/05/12 11:09:41.000,  53.540588456,  10.006202982,   51.7649,  2,  5,  0.0750,  0.0461,  0.1432,  0.0408,  0.0692,  0.0852, 11.00,   2.0
2020/05/12 11:09:42.000,  53.540582612,  10.006333557,   51.6327,  2,  5,  0.0756,  0.0464,  0.1444,  0.0411,  0.0696,  0.0858, 12.00,   2.0
2020/05/12 11:09:43.000,  53.540577584,  10.006470056,   51.6290,  2,  5,  0.0763,  0.0468,  0.1457,  0.0414,  0.0702,  0.0866, 13.00,   2.1
2020/05/12 11:09:44.000,  53.540572988,  10.006604204,   51.6712,  2,  5,  0.0771,  0.0471,  0.1471,  0.0417,  0.0708,  0.0874, 14.00,   2.1
2020/05/12 11:09:45.000,  53.540568271,  10.006725750,   51.6923,  2,  5,  0.0705,  0.0435,  0.1342,  0.0385,  0.0650,  0.0801,  0.00,   2.1
2020/05/12 11:09:46.000,  53.540562814,  10.006833852,   51.7979,  2,  5,  0.0704,  0.0433,  0.1340,  0.0385,  0.0649,  0.0800,  1.00,   2.1
2020/05/12 11:09:47.000,  53.540548140,  10.006926470,   51.8335,  2,  5,  0.0703,  0.0433,  0.1339,  0.0385,  0.0648,  0.0800,  2.00,   2.1
2020/05/12 11:09:48.000,  53.540516984,  10.007005611,   51.8052,  2,  6,  0.0702,  0.0432,  0.1335,  0.0383,  0.0646,  0.0797,  3.00,   1.1
2020/05/12 11:09:49.000,  53.540465754,  10.007068642,   51.8157,  2,  4,  0.0735,  0.0434,  0.1372,  0.0367,  0.0636,  0.0835,  4.00,   1.0
2020/05/12 11:09:50.000,  53.540396631,  10.007113779,   51.9301,  2,  4,  0.0738,  0.0435,  0.1370,  0.0362,  0.0632,  0.0833,  5.00,   1.0
2020/05/12 11:09:53.000,  53.540149970,  10.007290205,   52.1325,  5,  3, 10.2022, 17.1929, 22.3683, 13.2439,-19.6103,-15.1059,  8.00,   0.0
2020/05/12 11:09:54.000,  53.540055487,  10.007359732,   52.5139,  5,  3, 10.2087, 17.1903, 22.3673, 13.2471,-19.6084,-15.1104,  9.00,   0.0
2020/05/12 11:09:55.000,  53.539938952,  10.007426378,   50.9082,  2,  4,  0.8009,  0.7615,  1.8288,  0.5508, -0.9182,  0.7494, 10.00,   1.0
2020/05/12 11:09:56.000,  53.539835126,  10.007495008,   52.4015,  2,  5,  0.5744,  0.4387,  1.0517,  0.3843, -0.4261,  0.5494, 11.00,   1.0
2020/05/12 11:09:57.000,  53.539728188,  10.007571695,   52.4390,  2,  5,  0.4731,  0.3439,  0.8240,  0.3139, -0.3092,  0.4509, 12.00,   1.0
2020/05/12 11:09:58.000,  53.539618420,  10.007642878,   53.0519,  2,  5,  0.4129,  0.2927,  0.7009,  0.2722, -0.2525,  0.3908, 13.00,   1.0
2020/05/12 11:09:59.000,  53.539509126,  10.007716612,   53.3168,  2,  5,  0.3720,  0.2593,  0.6208,  0.2438, -0.2180,  0.3493, 14.00,   1.0
2020/05/12 11:10:00.000,  53.539400039,  10.007792803,   53.3650,  2,  5,  0.3388,  0.2349,  0.5622,  0.2225, -0.1939,  0.3197,  0.00,   1.0
2020/05/12 11:10:01.000,  53.539290647,  10.007869897,   53.6400,  2,  5,  0.3152,  0.2106,  0.5028,  0.2059, -0.1575,  0.2962,  1.00,   1.0
2020/05/12 11:10:02.000,  53.539181216,  10.007949195,   53.5369,  2,  6,  0.2906,  0.1855,  0.4594,  0.1846, -0.1284,  0.2797,  2.00,   1.0
2020/05/12 11:10:03.000,  53.539072709,  10.008028342,   53.5089,  2,  6,  0.2715,  0.1680,  0.4262,  0.1691, -0.1088,  0.2646,  3.00,   1.0
2020/05/12 11:10:04.000,  53.538965250,  10.008106474,   53.5193,  2,  6,  0.2560,  0.1548,  0.3997,  0.1570, -0.0945,  0.2512,  4.00,   1.0
2020/05/12 11:10:05.000,  53.538857904,  10.008181111,   53.3031,  2,  6,  0.2431,  0.1443,  0.3777,  0.1472, -0.0837,  0.2395,  5.00,   1.0
2020/05/12 11:10:06.000,  53.538754942,  10.008253908,   53.1365,  2,  6,  0.2321,  0.1357,  0.3590,  0.1391, -0.0751,  0.2291,  6.00,   1.0
2020/05/12 11:10:07.000,  53.538653321,  10.008323550,   53.0134,  2,  7,  0.2216,  0.1283,  0.3412,  0.1315, -0.0699,  0.2180,  7.00,   1.1
2020/05/12 11:10:08.000,  53.538554406,  10.008390786,   52.7828,  2,  6,  0.2188,  0.1234,  0.3320,  0.1288, -0.0563,  0.2163,  8.00,   1.0
2020/05/12 11:10:09.000,  53.538464994,  10.008447879,   52.7268,  2,  6,  0.2112,  0.1183,  0.3208,  0.1236, -0.0493,  0.2090,  9.00,   1.0
2020/05/12 11:10:10.000,  53.538385829,  10.008496142,   52.6350,  2,  6,  0.2039,  0.1134,  0.3085,  0.1182, -0.0473,  0.2010, 10.00,   1.1
2020/05/12 11:10:11.000,  53.538316966,  10.008532697,   52.6353,  2,  6,  0.1978,  0.1091,  0.2981,  0.1137, -0.0446,  0.1942, 11.00,   1.1
2020/05/12 11:10:12.000,  53.538253875,  10.008543171,   52.6644,  2,  6,  0.1923,  0.1054,  0.2889,  0.1097, -0.0421,  0.1882, 12.00,   1.1
2020/05/12 11:10:13.000,  53.538191410,  10.008520128,   52.6178,  2,  7,  0.1868,  0.1019,  0.2795,  0.1057, -0.0412,  0.1817, 13.00,   1.1
2020/05/12 11:10:14.000,  53.538127532,  10.008465035,   52.5453,  2,  6,  0.1824,  0.0989,  0.2721,  0.1025, -0.0390,  0.1767, 14.00,   1.1
2020/05/12 11:10:15.000,  53.538057193,  10.008401108,   52.4738,  2,  5,  0.1794,  0.0963,  0.2670,  0.1017, -0.0292,  0.1764,  0.00,   1.1
2020/05/12 11:10:16.000,  53.537979647,  10.008351849,   52.3612,  2,  5,  0.1780,  0.0943,  0.2632,  0.1005, -0.0184,  0.1753,  1.00,   1.0
2020/05/12 11:10:17.000,  53.537892569,  10.008328762,   52.0380,  2,  5,  0.1767,  0.0924,  0.2597,  0.0995,  0.0111,  0.1744,  2.00,   1.0
2020/05/12 11:10:18.000,  53.537800852,  10.008335611,   51.6686,  2,  5,  0.1755,  0.0908,  0.2566,  0.0985,  0.0233,  0.1735,  3.00,   1.0
2020/05/12 11:10:19.000,  53.537707323,  10.008370502,   51.2917,  2,  5,  0.1744,  0.0893,  0.2537,  0.0976,  0.0304,  0.1726,  4.00,   1.0
2020/05/12 11:10:20.000,  53.537616609,  10.008434846,   50.9492,  2,  5,  0.1734,  0.0879,  0.2511,  0.0967,  0.0358,  0.1719,  5.00,   1.0
2020/05/12 11:10:21.000,  53.537535028,  10.008529333,   50.5657,  2,  7,  0.1707,  0.0862,  0.2468,  0.0949,  0.0365,  0.1688,  6.00,   1.0
2020/05/12 11:10:22.000,  53.537468115,  10.008649255,   50.3116,  2,  7,  0.1669,  0.0841,  0.2406,  0.0922,  0.0334,  0.1641,  7.00,   1.0
2020/05/12 11:10:23.000,  53.537419266,  10.008790685,   50.0284,  2,  7,  0.1630,  0.0823,  0.2347,  0.0895,  0.0302,  0.1592,  8.00,   1.0
2020/05/12 11:10:24.000,  53.537392597,  10.008947438,   49.9234,  2,  7,  0.1596,  0.0805,  0.2293,  0.0872,  0.0272,  0.1551,  9.00,   1.1
2020/05/12 11:10:25.000,  53.537382232,  10.009111438,   49.8703,  2,  7,  0.1566,  0.0789,  0.2244,  0.0851,  0.0246,  0.1513, 10.00,   1.1
2020/05/12 11:10:26.000,  53.537370016,  10.009282840,   49.8275,  2,  7,  0.1538,  0.0775,  0.2198,  0.0831,  0.0222,  0.1478, 11.00,   1.2
2020/05/12 11:10:27.000,  53.537348446,  10.009464334,   49.7713,  2,  7,  0.1513,  0.0761,  0.2157,  0.0813,  0.0199,  0.1445, 12.00,   1.2
2020/05/12 11:10:28.000,  53.537323528,  10.009657249,   49.7561,  2,  6,  0.1521,  0.0756,  0.2118,  0.0815,  0.0175,  0.1413, 13.00,   1.2
2020/05/12 11:10:29.000,  53.537296792,  10.009860504,   49.7234,  2,  6,  0.1507,  0.0748,  0.2082,  0.0806,  0.0153,  0.1384, 14.00,   1.2
2020/05/12 11:10:30.000,  53.537268375,  10.010072073,   49.7735,  2,  6,  0.1456,  0.0731,  0.2027,  0.0789,  0.0170,  0.1360,  0.00,   1.3
2020/05/12 11:10:31.000,  53.537238860,  10.010288126,   49.7512,  2,  6,  0.1439,  0.0723,  0.1992,  0.0780,  0.0153,  0.1334,  1.00,   1.3
2020/05/12 11:10:32.000,  53.537209022,  10.010505065,   49.7719,  2,  6,  0.1423,  0.0715,  0.1958,  0.0771,  0.0137,  0.1308,  2.00,   1.3
2020/05/12 11:10:33.000,  53.537177610,  10.010720796,   49.8213,  2,  6,  0.1408,  0.0708,  0.1927,  0.0762,  0.0119,  0.1284,  3.00,   1.3
2020/05/12 11:10:34.000,  53.537145732,  10.010935091,   49.8073,  2,  6,  0.1395,  0.0700,  0.1897,  0.0754,  0.0101,  0.1261,  4.00,   1.3
2020/05/12 11:10:35.000,  53.537114080,  10.011148741,   49.8445,  2,  6,  0.1383,  0.0694,  0.1870,  0.0746,  0.0080,  0.1239,  5.00,   1.3
2020/05/12 11:10:36.000,  53.537082603,  10.011360660,   49.8374,  2,  6,  0.1371,  0.0687,  0.1843,  0.0739,  0.0054,  0.1219,  6.00,   1.3
2020/05/12 11:10:37.000,  53.537050540,  10.011568694,   49.8191,  2,  6,  0.1361,  0.0681,  0.1818,  0.0732, -0.0020,  0.1199,  7.00,   1.3
2020/05/12 11:10:38.000,  53.537017588,  10.011772689,   49.7844,  2,  6,  0.1351,  0.0675,  0.1795,  0.0726, -0.0060,  0.1180,  8.00,   1.3
2020/05/12 11:10:39.000,  53.536983390,  10.011975386,   49.8186,  2,  6,  0.1343,  0.0669,  0.1772,  0.0719, -0.0081,  0.1161,  9.00,   1.3
2020/05/12 11:10:40.000,  53.536948349,  10.012179205,   49.8168,  2,  6,  0.1335,  0.0664,  0.1751,  0.0714, -0.0098,  0.1144, 10.00,   1.3
2020/05/12 11:10:41.000,  53.536913186,  10.012380174,   49.8022,  2,  6,  0.1328,  0.0659,  0.1731,  0.0708, -0.0112,  0.1127, 11.00,   1.3
2020/05/12 11:10:42.000,  53.536878028,  10.012578264,   49.7964,  2,  6,  0.1322,  0.0654,  0.1712,  0.0703, -0.0125,  0.1111, 12.00,   1.3
2020/05/12 11:10:43.000,  53.536843937,  10.012773122,   49.7892,  2,  6,  0.1317,  0.0650,  0.1694,  0.0698, -0.0136,  0.1095, 13.00,   1.3
2020/05/12 11:10:44.000,  53.536809855,  10.012963706,   49.7996,  2,  6,  0.1312,  0.0645,  0.1677,  0.0694, -0.0146,  0.1080, 14.00,   1.3
2020/05/12 11:10:45.000,  53.536775222,  10.013150863,   49.7891,  2,  6,  0.1265,  0.0631,  0.1636,  0.0679, -0.0110,  0.1068,  0.00,   1.3
2020/05/12 11:10:46.000,  53.536741211,  10.013339764,   49.7482,  2,  6,  0.1253,  0.0625,  0.1615,  0.0672, -0.0122,  0.1051,  1.00,   1.3
2020/05/12 11:10:47.000,  53.536707086,  10.013531623,   49.6952,  2,  6,  0.1243,  0.0620,  0.1596,  0.0666, -0.0132,  0.1034,  2.00,   1.4
2020/05/12 11:10:48.000,  53.536672606,  10.013725387,   49.7033,  2,  6,  0.1234,  0.0615,  0.1577,  0.0660, -0.0140,  0.1019,  3.00,   1.4
2020/05/12 11:10:49.000,  53.536637525,  10.013919634,   49.6832,  2,  6,  0.1226,  0.0610,  0.1560,  0.0655, -0.0147,  0.1004,  4.00,   1.4
2020/05/12 11:10:50.000,  53.536602310,  10.014116406,   49.6812,  2,  6,  0.1219,  0.0606,  0.1544,  0.0650, -0.0154,  0.0990,  5.00,   1.4
2020/05/12 11:10:51.000,  53.536566201,  10.014316909,   49.6505,  2,  6,  0.1212,  0.0602,  0.1529,  0.0645, -0.0160,  0.0977,  6.00,   1.4
2020/05/12 11:10:52.000,  53.536529696,  10.014518214,   49.6480,  2,  6,  0.1207,  0.0598,  0.1515,  0.0641, -0.0165,  0.0964,  7.00,   1.5
2020/05/12 11:10:53.000,  53.536493331,  10.014718707,   49.6461,  2,  6,  0.1202,  0.0594,  0.1502,  0.0637, -0.0171,  0.0952,  8.00,   1.4
2020/05/12 11:10:54.000,  53.536457475,  10.014916251,   49.6597,  2,  6,  0.1198,  0.0591,  0.1489,  0.0633, -0.0176,  0.0941,  9.00,   1.5
2020/05/12 11:10:55.000,  53.536422109,  10.015111697,   49.6431,  2,  6,  0.1195,  0.0587,  0.1477,  0.0629, -0.0180,  0.0930, 10.00,   1.5
2020/05/12 11:10:56.000,  53.536386980,  10.015307466,   49.6357,  2,  6,  0.1192,  0.0584,  0.1466,  0.0626, -0.0185,  0.0919, 11.00,   1.5
2020/05/12 11:10:57.000,  53.536352981,  10.015501363,   49.6308,  2,  7,  0.1187,  0.0579,  0.1455,  0.0619, -0.0189,  0.0909, 12.00,   1.1
2020/05/12 11:10:58.000,  53.536318562,  10.015692553,   49.6189,  2,  6,  0.1186,  0.0577,  0.1445,  0.0617, -0.0194,  0.0899, 13.00,   1.5
2020/05/12 11:10:59.000,  53.536284200,  10.015883019,   49.6443,  2,  6,  0.1185,  0.0574,  0.1436,  0.0615, -0.0199,  0.0889, 14.00,   1.5
2020/05/12 11:11:00.000,  53.536248617,  10.016073349,   49.6430,  2,  6,  0.1137,  0.0560,  0.1397,  0.0600, -0.0172,  0.0880,  0.00,   1.6
2020/05/12 11:11:01.000,  53.536210038,  10.016262905,   49.6601,  2,  6,  0.1128,  0.0556,  0.1382,  0.0595, -0.0179,  0.0866,  1.00,   1.6
2020/05/12 11:11:02.000,  53.536165594,  10.016449276,   49.6220,  2,  6,  0.1119,  0.0552,  0.1368,  0.0590, -0.0185,  0.0853,  2.00,   1.6
2020/05/12 11:11:03.000,  53.536117772,  10.016634040,   49.6395,  2,  6,  0.1112,  0.0548,  0.1356,  0.0585, -0.0190,  0.0841,  3.00,   1.6
2020/05/12 11:11:04.000,  53.536071314,  10.016820974,   49.6496,  2,  6,  0.1105,  0.0545,  0.1344,  0.0581, -0.0194,  0.0829,  4.00,   1.6
2020/05/12 11:11:05.000,  53.536030093,  10.017013279,   49.6601,  2,  6,  0.1100,  0.0542,  0.1333,  0.0577, -0.0198,  0.0818,  5.00,   1.6
2020/05/12 11:11:06.000,  53.535993416,  10.017209777,   49.6211,  2,  6,  0.1096,  0.0539,  0.1324,  0.0574, -0.0202,  0.0808,  6.00,   1.6
2020/05/12 11:11:07.000,  53.535956460,  10.017409011,   49.6135,  2,  6,  0.1092,  0.0537,  0.1314,  0.0571, -0.0205,  0.0798,  7.00,   1.6
2020/05/12 11:11:08.000,  53.535916448,  10.017609740,   49.6002,  2,  6,  0.1090,  0.0534,  0.1306,  0.0568, -0.0208,  0.0789,  8.00,   1.5
2020/05/12 11:11:09.000,  53.535873076,  10.017810932,   49.5695,  2,  7,  0.1085,  0.0530,  0.1298,  0.0562, -0.0210,  0.0781,  9.00,   1.1
2020/05/12 11:11:10.000,  53.535827342,  10.018012226,   49.5587,  2,  7,  0.1072,  0.0525,  0.1290,  0.0552, -0.0209,  0.0776, 10.00,   1.1
2020/05/12 11:11:11.000,  53.535781278,  10.018211621,   49.5600,  2,  7,  0.1064,  0.0521,  0.1283,  0.0545, -0.0210,  0.0771, 11.00,   1.1
2020/05/12 11:11:12.000,  53.535736693,  10.018405215,   49.5457,  2,  7,  0.1058,  0.0518,  0.1277,  0.0539, -0.0211,  0.0765, 12.00,   1.2
2020/05/12 11:11:13.000,  53.535693590,  10.018593074,   49.5443,  2,  7,  0.1054,  0.0515,  0.1271,  0.0534, -0.0213,  0.0759, 13.00,   1.2
2020/05/12 11:11:14.000,  53.535651770,  10.018775037,   49.5357,  2,  7,  0.1050,  0.0511,  0.1266,  0.0528, -0.0214,  0.0754, 14.00,   1.2
2020/05/12 11:11:15.000,  53.535611105,  10.018951057,   49.4973,  2,  7,  0.1015,  0.0499,  0.1228,  0.0521, -0.0199,  0.0738,  0.00,   1.5
2020/05/12 11:11:16.000,  53.535571450,  10.019120470,   49.4785,  2,  7,  0.1004,  0.0494,  0.1216,  0.0514, -0.0203,  0.0726,  1.00,   1.6
2020/05/12 11:11:17.000,  53.535534824,  10.019278431,   49.4637,  2,  7,  0.0994,  0.0490,  0.1205,  0.0508, -0.0206,  0.0715,  2.00,   1.6
2020/05/12 11:11:18.000,  53.535505143,  10.019416310,   49.4393,  2,  7,  0.0985,  0.0486,  0.1196,  0.0501, -0.0209,  0.0705,  3.00,   1.6
2020/05/12 11:11:19.000,  53.535485517,  10.019548975,   49.4027,  2,  7,  0.0977,  0.0483,  0.1187,  0.0496, -0.0210,  0.0696,  4.00,   1.6
2020/05/12 11:11:20.000,  53.535481618,  10.019682412,   49.3168,  2,  7,  0.0969,  0.0479,  0.1179,  0.0490, -0.0212,  0.0688,  5.00,   1.6
2020/05/12 11:11:21.000,  53.535496691,  10.019813787,   49.2276,  2,  7,  0.0963,  0.0476,  0.1172,  0.0485, -0.0213,  0.0681,  6.00,   1.6
2020/05/12 11:11:22.000,  53.535528518,  10.019937998,   49.5268,  2,  7,  0.0958,  0.0473,  0.1166,  0.0480, -0.0214,  0.0674,  7.00,   1.6
2020/05/12 11:11:23.000,  53.535566060,  10.020054706,   50.3837,  2,  7,  0.0954,  0.0471,  0.1160,  0.0476, -0.0215,  0.0669,  8.00,   1.6
2020/05/12 11:11:24.000,  53.535603251,  10.020169942,   51.3234,  2,  7,  0.0950,  0.0468,  0.1155,  0.0471, -0.0216,  0.0663,  9.00,   1.6
2020/05/12 11:11:25.000,  53.535638854,  10.020284660,   52.1872,  2,  7,  0.0947,  0.0466,  0.1150,  0.0467, -0.0217,  0.0658, 10.00,   1.7
2020/05/12 11:11:26.000,  53.535670368,  10.020398961,   52.5411,  2,  7,  0.0944,  0.0464,  0.1146,  0.0463, -0.0218,  0.0654, 11.00,   1.7
2020/05/12 11:11:27.000,  53.535691704,  10.020516994,   52.4728,  2,  7,  0.0942,  0.0462,  0.1142,  0.0459, -0.0219,  0.0649, 12.00,   1.7
2020/05/12 11:11:28.000,  53.535698270,  10.020638750,   52.3580,  2,  7,  0.0941,  0.0460,  0.1139,  0.0456, -0.0221,  0.0645, 13.00,   1.7
2020/05/12 11:11:29.000,  53.535690089,  10.020762770,   52.3650,  2,  7,  0.0940,  0.0458,  0.1136,  0.0452, -0.0222,  0.0642, 14.00,   1.7
2020/05/12 11:11:30.000,  53.535668313,  10.020886713,   52.3205,  2,  7,  0.0903,  0.0445,  0.1098,  0.0446, -0.0208,  0.0625,  0.00,   1.8
2020/05/12 11:11:31.000,  53.535638786,  10.021011014,   52.2860,  2,  7,  0.0893,  0.0442,  0.1089,  0.0441, -0.0211,  0.0613,  1.00,   1.8
2020/05/12 11:11:32.000,  53.535607652,  10.021135735,   52.2605,  2,  7,  0.0884,  0.0439,  0.1080,  0.0435, -0.0214,  0.0603,  2.00,   1.9
2020/05/12 11:11:33.000,  53.535577191,  10.021257470,   52.2453,  2,  7,  0.0877,  0.0437,  0.1072,  0.0430, -0.0216,  0.0594,  3.00,   2.0
2020/05/12 11:11:34.000,  53.535546647,  10.021370307,   52.2624,  2,  7,  0.0870,  0.0434,  0.1066,  0.0426, -0.0217,  0.0586,  4.00,   2.0
2020/05/12 11:11:35.000,  53.535518005,  10.021476537,   52.2794,  2,  7,  0.0865,  0.0432,  0.1060,  0.0422, -0.0218,  0.0579,  5.00,   2.1
2020/05/12 11:11:36.000,  53.535502402,  10.021581728,   52.3195,  2,  7,  0.0860,  0.0430,  0.1055,  0.0418, -0.0219,  0.0573,  6.00,   2.1
2020/05/12 11:11:37.000,  53.535504802,  10.021681974,   52.3293,  2,  7,  0.0857,  0.0428,  0.1050,  0.0414, -0.0220,  0.0568,  7.00,   2.1
2020/05/12 11:11:38.000,  53.535525478,  10.021766112,   52.3206,  2,  7,  0.0861,  0.0426,  0.1047,  0.0408, -0.0219,  0.0559,  8.00,   1.1
2020/05/12 11:11:39.000,  53.535560572,  10.021828642,   52.3028,  2,  7,  0.0861,  0.0425,  0.1045,  0.0405, -0.0218,  0.0555,  9.00,   1.1
2020/05/12 11:11:40.000,  53.535607273,  10.021867484,   52.2896,  2,  7,  0.0860,  0.0423,  0.1041,  0.0404, -0.0221,  0.0556, 10.00,   1.2
2020/05/12 11:11:41.000,  53.535656830,  10.021888109,   52.2864,  2,  7,  0.0859,  0.0422,  0.1039,  0.0402, -0.0222,  0.0554, 11.00,   1.2
2020/05/12 11:11:42.000,  53.535697604,  10.021907139,   52.2685,  2,  7,  0.0862,  0.0421,  0.1039,  0.0398, -0.0221,  0.0549, 12.00,   1.1
2020/05/12 11:11:43.000,  53.535722707,  10.021922283,   52.2411,  2,  7,  0.0861,  0.0420,  0.1037,  0.0397, -0.0223,  0.0550, 13.00,   1.1
2020/05/12 11:11:44.000,  53.535736650,  10.021931758,   52.2249,  2,  7,  0.0862,  0.0419,  0.1036,  0.0395, -0.0225,  0.0549, 14.00,   1.2
2020/05/12 11:11:45.000,  53.535745314,  10.021938125,   52.2022,  2,  7,  0.0821,  0.0406,  0.0998,  0.0392, -0.0209,  0.0536,  0.00,   1.5
2020/05/12 11:11:46.000,  53.535749923,  10.021941475,   52.2030,  2,  7,  0.0814,  0.0404,  0.0991,  0.0388, -0.0209,  0.0529,  1.00,   1.8
2020/05/12 11:11:47.000,  53.535750431,  10.021941850,   52.1949,  2,  7,  0.0809,  0.0402,  0.0985,  0.0384, -0.0210,  0.0522,  2.00,   2.0
2020/05/12 11:11:48.000,  53.535750542,  10.021941905,   52.1937,  2,  7,  0.0804,  0.0400,  0.0980,  0.0381, -0.0211,  0.0517,  3.00,   2.2
2020/05/12 11:11:49.000,  53.535750646,  10.021941883,   52.1792,  2,  7,  0.0801,  0.0398,  0.0976,  0.0378, -0.0211,  0.0512,  4.00,   2.4
