% program   : RTKPOST ver.2.4.2
% inp file  : C:\Users\stoeck\Desktop\Int-Nav-2020\U-Blox\ublox.obs
% inp file  : C:\Users\stoeck\Desktop\Int-Nav-2020\U-Blox\ublox.nav
% inp file  : C:\Users\stoeck\Desktop\Int-Nav-2020\Reference\ref.20n
% obs start : 2020/05/12 11:06:48.0 GPST (week2105 212808.0s)
% obs end   : 2020/05/12 11:52:40.0 GPST (week2105 215560.0s)
% pos mode  : single
% elev mask : 10.0 deg
% ionos opt : off
% tropo opt : saastamoinen
% ephemeris : broadcast
% navi sys  : gps galileo
%
% (lat/lon/height=WGS84/ellipsoidal,Q=1:fix,2:float,3:sbas,4:dgps,5:single,6:ppp,ns=# of satellites)
%  GPST                , latitude(deg),longitude(deg), height(m),  Q, ns,  sdn(m),  sde(m),  sdu(m), sdne(m), sdeu(m), sdun(m),age(s), ratio
2020/05/12 11:07:39.000,  53.540582529,  10.005968406,   70.1084,  5,  7,  8.0200,  3.3211,  9.5467, -2.0790, -3.4268,  4.7639,  0.00,   0.0
2020/05/12 11:07:40.000,  53.540513983,  10.005978246,   68.4511,  5,  7,  8.0186,  3.3208,  9.5454, -2.0781, -3.4256,  4.7616,  0.00,   0.0
2020/05/12 11:07:41.000,  53.540509394,  10.005977856,   67.0010,  5,  7,  8.0173,  3.3205,  9.5441, -2.0771, -3.4244,  4.7593,  0.00,   0.0
2020/05/12 11:07:42.000,  53.540441376,  10.005988277,   64.5495,  5,  7,  8.0159,  3.3202,  9.5428, -2.0762, -3.4232,  4.7570,  0.00,   0.0
2020/05/12 11:07:43.000,  53.540373551,  10.006013859,   66.6274,  5,  7,  8.0146,  3.3199,  9.5415, -2.0752, -3.4220,  4.7547,  0.00,   0.0
2020/05/12 11:07:44.000,  53.540339721,  10.006039930,   70.0802,  5,  7,  8.0132,  3.3196,  9.5402, -2.0743, -3.4208,  4.7524,  0.00,   0.0
2020/05/12 11:07:45.000,  53.540305568,  10.006051739,   70.4740,  5,  7,  8.0119,  3.3193,  9.5388, -2.0734, -3.4196,  4.7501,  0.00,   0.0
2020/05/12 11:07:46.000,  53.540300253,  10.006051921,   70.5155,  5,  7,  8.0105,  3.3191,  9.5375, -2.0724, -3.4184,  4.7478,  0.00,   0.0
2020/05/12 11:07:52.000,  53.540496243,  10.006104873,   88.8129,  5,  6, 10.6301,  3.5913, 11.8685,  2.3139, -1.3799,  8.4800,  0.00,   0.0
2020/05/12 11:07:53.000,  53.540513225,  10.006135532,   96.1563,  5,  6, 10.6293,  3.5913, 11.8684,  2.3157, -1.3746,  8.4794,  0.00,   0.0
2020/05/12 11:07:54.000,  53.540489182,  10.006092932,   86.0556,  5,  6, 10.6285,  3.5912, 11.8682,  2.3176, -1.3692,  8.4789,  0.00,   0.0
2020/05/12 11:07:55.000,  53.540482054,  10.006079683,   83.4930,  5,  6, 10.6276,  3.5912, 11.8680,  2.3195, -1.3638,  8.4784,  0.00,   0.0
2020/05/12 11:07:56.000,  53.540474472,  10.006062853,   80.4627,  5,  6, 10.6268,  3.5912, 11.8679,  2.3214, -1.3584,  8.4778,  0.00,   0.0
2020/05/12 11:07:57.000,  53.540452648,  10.006019131,   70.8983,  5,  6, 10.6260,  3.5912, 11.8677,  2.3232, -1.3530,  8.4773,  0.00,   0.0
2020/05/12 11:07:58.000,  53.540446273,  10.006003405,   68.6047,  5,  6, 10.6252,  3.5912, 11.8676,  2.3251, -1.3475,  8.4768,  0.00,   0.0
2020/05/12 11:07:59.000,  53.540438080,  10.005985284,   64.2881,  5,  6, 10.6244,  3.5912, 11.8674,  2.3269, -1.3420,  8.4762,  0.00,   0.0
2020/05/12 11:08:00.000,  53.540426880,  10.005960751,   58.6916,  5,  6, 10.6236,  3.5911, 11.8673,  2.3288, -1.3366,  8.4757,  0.00,   0.0
2020/05/12 11:08:01.000,  53.540413828,  10.005938783,   53.9337,  5,  6, 10.6228,  3.5911, 11.8671,  2.3307, -1.3310,  8.4751,  0.00,   0.0
2020/05/12 11:08:02.000,  53.540411585,  10.005925685,   52.0043,  5,  6, 10.6219,  3.5911, 11.8670,  2.3325, -1.3255,  8.4746,  0.00,   0.0
2020/05/12 11:08:03.000,  53.540411855,  10.005917060,   50.8377,  5,  6, 10.6211,  3.5911, 11.8668,  2.3344, -1.3199,  8.4740,  0.00,   0.0
2020/05/12 11:08:04.000,  53.540420585,  10.005923122,   53.1443,  5,  6, 10.6203,  3.5911, 11.8666,  2.3362, -1.3144,  8.4735,  0.00,   0.0
2020/05/12 11:08:05.000,  53.540426459,  10.005931601,   55.6608,  5,  6, 10.6195,  3.5911, 11.8665,  2.3381, -1.3087,  8.4729,  0.00,   0.0
2020/05/12 11:08:06.000,  53.540595435,  10.006004730,   78.0874,  5,  7,  7.9834,  3.3134,  9.5115, -2.0538, -3.3943,  4.7016,  0.00,   0.0
2020/05/12 11:08:07.000,  53.540551964,  10.006011974,   77.6609,  5,  7,  7.9821,  3.3131,  9.5102, -2.0528, -3.3931,  4.6993,  0.00,   0.0
2020/05/12 11:08:08.000,  53.540466794,  10.006002775,   72.4620,  5,  6, 10.6170,  3.5910, 11.8660,  2.3436, -1.2918,  8.4712,  0.00,   0.0
2020/05/12 11:08:09.000,  53.540484275,  10.006037109,   80.4195,  5,  6, 10.6161,  3.5910, 11.8658,  2.3455, -1.2861,  8.4707,  0.00,   0.0
2020/05/12 11:08:10.000,  53.540492358,  10.006048363,   83.1880,  5,  6, 10.6153,  3.5910, 11.8657,  2.3473, -1.2804,  8.4701,  0.00,   0.0
2020/05/12 11:08:11.000,  53.540495238,  10.006057257,   84.7713,  5,  6, 10.6144,  3.5910, 11.8655,  2.3491, -1.2746,  8.4696,  0.00,   0.0
2020/05/12 11:08:12.000,  53.540503724,  10.006068260,   87.8441,  5,  6, 10.6136,  3.5910, 11.8653,  2.3510, -1.2689,  8.4690,  0.00,   0.0
2020/05/12 11:08:13.000,  53.540504502,  10.006070471,   88.4434,  5,  6, 10.6128,  3.5910, 11.8652,  2.3528, -1.2631,  8.4684,  0.00,   0.0
2020/05/12 11:08:14.000,  53.540479820,  10.006044472,   81.8518,  5,  6, 10.6119,  3.5909, 11.8650,  2.3546, -1.2572,  8.4679,  0.00,   0.0
2020/05/12 11:08:15.000,  53.540460905,  10.006009374,   74.0607,  5,  6, 10.6111,  3.5909, 11.8648,  2.3565, -1.2514,  8.4673,  0.00,   0.0
2020/05/12 11:08:16.000,  53.540446199,  10.005989168,   69.4996,  5,  6, 10.6103,  3.5909, 11.8647,  2.3583, -1.2455,  8.4668,  0.00,   0.0
2020/05/12 11:08:17.000,  53.540435903,  10.005973385,   65.0885,  5,  6, 10.6094,  3.5909, 11.8645,  2.3601, -1.2396,  8.4662,  0.00,   0.0
2020/05/12 11:08:18.000,  53.540404540,  10.005932493,   54.6274,  5,  6, 10.6086,  3.5909, 11.8643,  2.3619, -1.2336,  8.4656,  0.00,   0.0
2020/05/12 11:08:19.000,  53.540390058,  10.005910986,   49.3589,  5,  6, 10.6077,  3.5909, 11.8642,  2.3637, -1.2277,  8.4651,  0.00,   0.0
2020/05/12 11:08:20.000,  53.540374945,  10.005890677,   45.0469,  5,  6, 10.6069,  3.5909, 11.8640,  2.3655, -1.2217,  8.4645,  0.00,   0.0
2020/05/12 11:08:21.000,  53.540374336,  10.005892947,   45.4477,  5,  6, 10.6060,  3.5909, 11.8638,  2.3674, -1.2157,  8.4639,  0.00,   0.0
2020/05/12 11:08:23.000,  53.540380849,  10.005903739,   49.0979,  5,  6, 10.6043,  3.5909, 11.8635,  2.3710, -1.2035,  8.4628,  0.00,   0.0
2020/05/12 11:08:25.000,  53.540628223,  10.006030489,   85.1521,  5,  7,  7.9578,  3.3082,  9.4869, -2.0362, -3.3714,  4.6577,  0.00,   0.0
2020/05/12 11:08:26.000,  53.540548344,  10.006043306,   83.9168,  5,  7,  7.9564,  3.3079,  9.4856, -2.0353, -3.3702,  4.6554,  0.00,   0.0
2020/05/12 11:08:27.000,  53.540561197,  10.006086177,   93.0348,  5,  7,  7.9551,  3.3076,  9.4843, -2.0343, -3.3690,  4.6531,  0.00,   0.0
2020/05/12 11:08:28.000,  53.540543939,  10.006104438,   95.0468,  5,  7,  7.9537,  3.3073,  9.4830, -2.0334, -3.3678,  4.6508,  0.00,   0.0
2020/05/12 11:08:29.000,  53.540570561,  10.006142211,  103.4710,  5,  7,  7.9524,  3.3071,  9.4817, -2.0325, -3.3666,  4.6485,  0.00,   0.0
2020/05/12 11:08:30.000,  53.540545803,  10.006163413,  106.3991,  5,  7,  7.9510,  3.3068,  9.4804, -2.0316, -3.3654,  4.6461,  0.00,   0.0
2020/05/12 11:08:31.000,  53.540536614,  10.006162571,  105.7034,  5,  7,  7.9497,  3.3065,  9.4791, -2.0306, -3.3642,  4.6438,  0.00,   0.0
2020/05/12 11:08:32.000,  53.540481485,  10.006146486,   99.1977,  5,  7,  7.9483,  3.3062,  9.4778, -2.0297, -3.3630,  4.6415,  0.00,   0.0
2020/05/12 11:08:33.000,  53.540480923,  10.006149933,  100.4416,  5,  7,  7.9470,  3.3060,  9.4765, -2.0288, -3.3618,  4.6392,  0.00,   0.0
2020/05/12 11:08:34.000,  53.540483039,  10.006150647,  101.1413,  5,  7,  7.9456,  3.3057,  9.4752, -2.0279, -3.3606,  4.6369,  0.00,   0.0
2020/05/12 11:08:35.000,  53.540529684,  10.006170091,  107.2898,  5,  7,  7.9443,  3.3054,  9.4739, -2.0269, -3.3594,  4.6346,  0.00,   0.0
2020/05/12 11:08:36.000,  53.540577888,  10.006167030,  108.6477,  5,  7,  7.9429,  3.3051,  9.4726, -2.0260, -3.3582,  4.6323,  0.00,   0.0
2020/05/12 11:08:37.000,  53.540614067,  10.006148917,  106.9796,  5,  7,  7.9416,  3.3049,  9.4713, -2.0251, -3.3570,  4.6299,  0.00,   0.0
2020/05/12 11:08:38.000,  53.540602660,  10.006110717,  103.0066,  5,  7,  7.9402,  3.3046,  9.4700, -2.0242, -3.3558,  4.6276,  0.00,   0.0
2020/05/12 11:08:39.000,  53.540613712,  10.006079373,   98.4162,  5,  7,  7.9389,  3.3043,  9.4687, -2.0233, -3.3546,  4.6253,  0.00,   0.0
2020/05/12 11:08:40.000,  53.540576897,  10.006122050,   86.9627,  5,  6,  8.9276,  3.8856, 11.1612, -3.5278, -4.8303,  6.7473,  0.00,   0.0
2020/05/12 11:08:54.000,  53.540616903,  10.006142494,   94.1633,  5,  6,  8.8847,  3.8758, 11.1247, -3.4966, -4.8025,  6.6879,  0.00,   0.0
2020/05/12 11:08:55.000,  53.540588079,  10.006140847,   91.9218,  5,  6,  8.8817,  3.8751, 11.1222, -3.4944, -4.8006,  6.6836,  0.00,   0.0
2020/05/12 11:08:56.000,  53.540561470,  10.006163175,   92.1237,  5,  6,  8.8786,  3.8744, 11.1196, -3.4922, -4.7986,  6.6794,  0.00,   0.0
2020/05/12 11:08:57.000,  53.540536083,  10.006153795,   89.5052,  5,  6,  8.8756,  3.8737, 11.1170, -3.4899, -4.7966,  6.6752,  0.00,   0.0
2020/05/12 11:08:58.000,  53.540541363,  10.006140542,   88.5338,  5,  6,  8.8726,  3.8730, 11.1144, -3.4877, -4.7946,  6.6710,  0.00,   0.0
2020/05/12 11:08:59.000,  53.540538816,  10.006126373,   86.5131,  5,  6,  8.8695,  3.8723, 11.1118, -3.4855, -4.7927,  6.6667,  0.00,   0.0
2020/05/12 11:09:00.000,  53.540545806,  10.006098640,   84.0443,  5,  6,  8.8665,  3.8716, 11.1093, -3.4833, -4.7907,  6.6625,  0.00,   0.0
2020/05/12 11:09:01.000,  53.540547360,  10.006092649,   83.7757,  5,  6,  8.8635,  3.8709, 11.1067, -3.4811, -4.7887,  6.6583,  0.00,   0.0
2020/05/12 11:09:02.000,  53.540560874,  10.006064304,   81.6743,  5,  6,  8.8604,  3.8702, 11.1041, -3.4789, -4.7868,  6.6541,  0.00,   0.0
2020/05/12 11:09:03.000,  53.540582825,  10.006070788,   83.9131,  5,  6,  8.8574,  3.8696, 11.1015, -3.4767, -4.7848,  6.6499,  0.00,   0.0
2020/05/12 11:09:09.000,  53.540608786,  10.006114104,   89.2769,  5,  6,  8.8393,  3.8654, 11.0862, -3.4635, -4.7731,  6.6246,  0.00,   0.0
2020/05/12 11:09:10.000,  53.540553436,  10.006099636,   84.0161,  5,  6,  8.8363,  3.8648, 11.0836, -3.4613, -4.7711,  6.6204,  0.00,   0.0
2020/05/12 11:09:11.000,  53.540506284,  10.006088957,   78.3181,  5,  6,  8.8333,  3.8641, 11.0810, -3.4591, -4.7691,  6.6162,  0.00,   0.0
2020/05/12 11:09:12.000,  53.540432264,  10.006052764,   68.9885,  5,  6,  8.8303,  3.8634, 11.0785, -3.4569, -4.7672,  6.6121,  0.00,   0.0
2020/05/12 11:09:13.000,  53.540381155,  10.006038513,   63.4651,  5,  6,  8.8273,  3.8627, 11.0759, -3.4547, -4.7652,  6.6079,  0.00,   0.0
2020/05/12 11:09:14.000,  53.540352620,  10.006036086,   60.2982,  5,  6,  8.8243,  3.8620, 11.0734, -3.4525, -4.7633,  6.6037,  0.00,   0.0
2020/05/12 11:09:15.000,  53.540325457,  10.006029357,   57.1138,  5,  6,  8.8214,  3.8614, 11.0708, -3.4503, -4.7613,  6.5995,  0.00,   0.0
2020/05/12 11:09:16.000,  53.540297204,  10.006023978,   54.4323,  5,  6,  8.8184,  3.8607, 11.0683, -3.4482, -4.7594,  6.5953,  0.00,   0.0
2020/05/12 11:09:17.000,  53.540260115,  10.006053225,   53.8457,  5,  6,  8.8154,  3.8600, 11.0657, -3.4460, -4.7574,  6.5911,  0.00,   0.0
2020/05/12 11:09:18.000,  53.540201160,  10.006074111,   51.3643,  5,  6,  8.8124,  3.8593, 11.0632, -3.4438, -4.7555,  6.5869,  0.00,   0.0
2020/05/12 11:09:24.000,  53.540525983,  10.006147632,  102.1009,  5,  6, 10.5495,  3.5913, 11.8520,  2.4772, -0.7467,  8.4253,  0.00,   0.0
2020/05/12 11:09:25.000,  53.540305870,  10.006064394,   69.8019,  5,  7,  7.8771,  3.2920,  9.4096, -1.9814, -3.2995,  4.5187,  0.00,   0.0
2020/05/12 11:09:26.000,  53.540375078,  10.006069599,   77.7993,  5,  7,  7.8757,  3.2917,  9.4084, -1.9805, -3.2983,  4.5164,  0.00,   0.0
2020/05/12 11:09:27.000,  53.540584485,  10.005943955,   68.3751,  5,  7,  7.8744,  3.2915,  9.4071, -1.9796, -3.2971,  4.5141,  0.00,   0.0
2020/05/12 11:09:28.000,  53.540661294,  10.005941252,   73.4097,  5,  7,  7.8730,  3.2912,  9.4058, -1.9787, -3.2959,  4.5117,  0.00,   0.0
2020/05/12 11:09:29.000,  53.540709659,  10.005957107,   75.5264,  5,  7,  7.8717,  3.2909,  9.4045, -1.9778, -3.2947,  4.5094,  0.00,   0.0
2020/05/12 11:09:33.000,  53.540678957,  10.005954407,   73.8706,  5,  7,  7.8663,  3.2899,  9.3994, -1.9742, -3.2899,  4.5001,  0.00,   0.0
2020/05/12 11:09:34.000,  53.540702594,  10.005967319,   77.6309,  5,  7,  7.8650,  3.2896,  9.3982, -1.9733, -3.2887,  4.4978,  0.00,   0.0
2020/05/12 11:09:37.000,  53.540783232,  10.005984642,   78.2570,  5,  7,  7.8610,  3.2888,  9.3943, -1.9706, -3.2851,  4.4908,  0.00,   0.0
2020/05/12 11:09:38.000,  53.540781427,  10.006012743,   76.0466,  5,  7,  7.8596,  3.2886,  9.3931, -1.9697, -3.2839,  4.4885,  0.00,   0.0
2020/05/12 11:09:39.000,  53.540773835,  10.006066987,   73.9609,  5,  7,  7.8583,  3.2883,  9.3918, -1.9688, -3.2827,  4.4862,  0.00,   0.0
2020/05/12 11:09:40.000,  53.540756651,  10.006139438,   72.2148,  5,  7,  7.8570,  3.2881,  9.3905, -1.9679, -3.2816,  4.4839,  0.00,   0.0
2020/05/12 11:09:41.000,  53.540697371,  10.006229766,   65.7554,  5,  7,  7.8556,  3.2878,  9.3892, -1.9670, -3.2804,  4.4816,  0.00,   0.0
2020/05/12 11:09:42.000,  53.540676964,  10.006312501,   64.7329,  5,  6,  9.6003,  4.9184, 11.7448, -4.9051, -6.0473,  7.6827,  0.00,   0.0
2020/05/12 11:09:43.000,  53.540612450,  10.006467079,   57.0796,  5,  7,  7.8530,  3.2873,  9.3867, -1.9652, -3.2780,  4.4769,  0.00,   0.0
2020/05/12 11:09:44.000,  53.540574978,  10.006612002,   52.5238,  5,  7,  7.8516,  3.2870,  9.3854, -1.9643, -3.2768,  4.4746,  0.00,   0.0
2020/05/12 11:09:45.000,  53.540545115,  10.006721230,   49.5938,  5,  7,  7.8503,  3.2868,  9.3841, -1.9634, -3.2756,  4.4723,  0.00,   0.0
2020/05/12 11:09:46.000,  53.540572387,  10.006823796,   54.1260,  5,  7,  7.8490,  3.2865,  9.3829, -1.9625, -3.2745,  4.4700,  0.00,   0.0
2020/05/12 11:09:47.000,  53.540547927,  10.006922076,   53.0328,  5,  7,  7.8476,  3.2863,  9.3816, -1.9616, -3.2733,  4.4676,  0.00,   0.0
2020/05/12 11:09:48.000,  53.540504322,  10.006994354,   51.8263,  5,  7,  7.8463,  3.2860,  9.3803, -1.9607, -3.2721,  4.4653,  0.00,   0.0
2020/05/12 11:09:49.000,  53.540478389,  10.007032640,   53.4073,  5,  6,  9.5872,  4.9141, 11.7308, -4.8967, -6.0370,  7.6648,  0.00,   0.0
2020/05/12 11:09:50.000,  53.540419349,  10.007073533,   54.5897,  5,  6,  9.5853,  4.9134, 11.7288, -4.8955, -6.0355,  7.6622,  0.00,   0.0
2020/05/12 11:09:51.000,  53.540357749,  10.007135956,   57.6021,  5,  5, 11.9205,  8.9078, 15.7276,  5.3592,-10.6904, -3.9530,  0.00,   0.0
2020/05/12 11:09:52.000,  53.540243282,  10.007204720,   54.2742,  5,  5, 11.9209,  8.9063, 15.7255,  5.3616,-10.6886, -3.9614,  0.00,   0.0
2020/05/12 11:09:53.000,  53.540154671,  10.007296888,   53.2787,  5,  5, 11.9213,  8.9049, 15.7234,  5.3640,-10.6867, -3.9697,  0.00,   0.0
2020/05/12 11:09:54.000,  53.540057539,  10.007285337,   60.7285,  5,  6, 11.8495,  4.1322,  9.6220,  4.2964, -4.0146,  0.6889,  0.00,   0.0
2020/05/12 11:09:55.000,  53.539977267,  10.007435337,   54.6629,  5,  7,  7.8370,  3.2842,  9.3714, -1.9544, -3.2638,  4.4491,  0.00,   0.0
2020/05/12 11:09:56.000,  53.539751945,  10.007461836,   55.4718,  5,  7,  7.8357,  3.2840,  9.3701, -1.9535, -3.2626,  4.4468,  0.00,   0.0
2020/05/12 11:09:57.000,  53.539639772,  10.007535360,   57.1418,  5,  7,  7.8343,  3.2837,  9.3688, -1.9526, -3.2614,  4.4445,  0.00,   0.0
2020/05/12 11:09:58.000,  53.539613197,  10.007645536,   54.0889,  5,  7,  7.8330,  3.2834,  9.3676, -1.9517, -3.2602,  4.4422,  0.00,   0.0
2020/05/12 11:09:59.000,  53.539533522,  10.007712871,   55.4332,  5,  7,  7.8317,  3.2832,  9.3663, -1.9508, -3.2590,  4.4398,  0.00,   0.0
2020/05/12 11:10:00.000,  53.539424160,  10.007792518,   53.3052,  5,  7,  7.8303,  3.2829,  9.3650, -1.9500, -3.2578,  4.4375,  0.00,   0.0
2020/05/12 11:10:01.000,  53.539305215,  10.007863152,   55.2175,  5,  7,  7.8290,  3.2827,  9.3637, -1.9491, -3.2567,  4.4352,  0.00,   0.0
2020/05/12 11:10:02.000,  53.539188093,  10.007949273,   54.9114,  5,  7,  7.8277,  3.2824,  9.3625, -1.9482, -3.2555,  4.4329,  0.00,   0.0
2020/05/12 11:10:03.000,  53.539087437,  10.008032636,   55.0544,  5,  7,  7.8264,  3.2822,  9.3612, -1.9473, -3.2543,  4.4306,  0.00,   0.0
2020/05/12 11:10:04.000,  53.538961404,  10.008109992,   57.2370,  5,  7,  7.8250,  3.2819,  9.3599, -1.9464, -3.2531,  4.4283,  0.00,   0.0
2020/05/12 11:10:05.000,  53.538851181,  10.008192635,   57.4132,  5,  7,  7.8237,  3.2817,  9.3586, -1.9455, -3.2519,  4.4259,  0.00,   0.0
2020/05/12 11:10:06.000,  53.538741592,  10.008268345,   57.6350,  5,  7,  7.8224,  3.2814,  9.3574, -1.9446, -3.2507,  4.4236,  0.00,   0.0
2020/05/12 11:10:07.000,  53.538637196,  10.008333565,   56.9402,  5,  7,  7.8211,  3.2812,  9.3561, -1.9437, -3.2495,  4.4213,  0.00,   0.0
2020/05/12 11:10:08.000,  53.538547694,  10.008398941,   55.9281,  5,  7,  7.8197,  3.2809,  9.3548, -1.9428, -3.2484,  4.4190,  0.00,   0.0
2020/05/12 11:10:09.000,  53.538452167,  10.008459006,   56.2138,  5,  7,  7.8184,  3.2807,  9.3536, -1.9419, -3.2472,  4.4167,  0.00,   0.0
2020/05/12 11:10:10.000,  53.538382938,  10.008496563,   55.2048,  5,  7,  7.8171,  3.2804,  9.3523, -1.9411, -3.2460,  4.4144,  0.00,   0.0
2020/05/12 11:10:11.000,  53.538328105,  10.008519199,   53.4859,  5,  7,  7.8158,  3.2802,  9.3510, -1.9402, -3.2448,  4.4120,  0.00,   0.0
2020/05/12 11:10:12.000,  53.538257901,  10.008530751,   54.1116,  5,  7,  7.8144,  3.2799,  9.3498, -1.9393, -3.2436,  4.4097,  0.00,   0.0
2020/05/12 11:10:13.000,  53.538190650,  10.008509071,   54.6281,  5,  7,  7.8131,  3.2796,  9.3485, -1.9384, -3.2424,  4.4074,  0.00,   0.0
2020/05/12 11:10:14.000,  53.538122394,  10.008458960,   55.0595,  5,  7,  7.8118,  3.2794,  9.3472, -1.9375, -3.2412,  4.4051,  0.00,   0.0
2020/05/12 11:10:15.000,  53.538030232,  10.008421315,   59.5880,  5,  7,  7.8104,  3.2791,  9.3460, -1.9367, -3.2400,  4.4027,  0.00,   0.0
2020/05/12 11:10:16.000,  53.537842817,  10.008465843,   63.0089,  5,  6,  9.5369,  4.8974, 11.6764, -4.8644, -5.9966,  7.5955,  0.00,   0.0
2020/05/12 11:10:17.000,  53.537843214,  10.008357774,   55.8885,  5,  5,  8.6524,  3.8317, 11.9675, -3.3370, -4.4873,  6.1676,  0.00,   0.0
2020/05/12 11:10:18.000,  53.537802912,  10.008334544,   55.5019,  5,  7,  7.8065,  3.2784,  9.3422, -1.9340, -3.2364,  4.3958,  0.00,   0.0
2020/05/12 11:10:19.000,  53.537709865,  10.008361103,   52.0688,  5,  7,  7.8051,  3.2781,  9.3409, -1.9332, -3.2352,  4.3935,  0.00,   0.0
2020/05/12 11:10:20.000,  53.537616213,  10.008435243,   49.7965,  5,  7,  7.8038,  3.2779,  9.3396, -1.9323, -3.2341,  4.3911,  0.00,   0.0
2020/05/12 11:10:21.000,  53.537525737,  10.008535235,   50.7063,  5,  7,  7.8025,  3.2776,  9.3384, -1.9314, -3.2329,  4.3888,  0.00,   0.0
2020/05/12 11:10:22.000,  53.537454629,  10.008657033,   50.7668,  5,  7,  7.8012,  3.2774,  9.3371, -1.9305, -3.2317,  4.3865,  0.00,   0.0
2020/05/12 11:10:23.000,  53.537427402,  10.008782392,   49.2182,  5,  7,  7.7998,  3.2771,  9.3358, -1.9296, -3.2305,  4.3842,  0.00,   0.0
2020/05/12 11:10:24.000,  53.537395346,  10.008948988,   50.3365,  5,  6,  8.4695,  3.7198, 10.0576, -3.0880, -1.9589,  2.6133,  0.00,   0.0
2020/05/12 11:10:25.000,  53.537390313,  10.009108853,   49.7538,  5,  7,  7.7972,  3.2766,  9.3333, -1.9278, -3.2282,  4.3795,  0.00,   0.0
2020/05/12 11:10:26.000,  53.537375923,  10.009281332,   50.4030,  5,  7,  7.7959,  3.2764,  9.3320, -1.9269, -3.2270,  4.3772,  0.00,   0.0
2020/05/12 11:10:27.000,  53.537357062,  10.009465577,   49.6759,  5,  6,  9.5163,  4.8907, 11.6543, -4.8512, -5.9801,  7.5671,  0.00,   0.0
2020/05/12 11:10:28.000,  53.537328723,  10.009665058,   49.6337,  5,  6, 11.8541,  4.1269,  9.5916,  4.3259, -3.9985, -0.8793,  0.00,   0.0
2020/05/12 11:10:29.000,  53.537316550,  10.009869727,   48.4446,  5,  6, 11.8542,  4.1267,  9.5908,  4.3268, -3.9981, -0.8999,  0.00,   0.0
2020/05/12 11:10:30.000,  53.537277592,  10.010082640,   49.1602,  5,  6, 11.8543,  4.1266,  9.5899,  4.3276, -3.9976, -0.9200,  0.00,   0.0
2020/05/12 11:10:31.000,  53.537266352,  10.010308757,   48.4913,  5,  7,  7.7892,  3.2752,  9.3257, -1.9224, -3.2212,  4.3656,  0.00,   0.0
2020/05/12 11:10:32.000,  53.537220248,  10.010513245,   49.7575,  5,  6, 11.8546,  4.1263,  9.5881,  4.3294, -3.9967, -0.9590,  0.00,   0.0
2020/05/12 11:10:33.000,  53.536996920,  10.010632084,   56.1284,  5,  7,  7.7866,  3.2747,  9.3232, -1.9206, -3.2188,  4.3610,  0.00,   0.0
2020/05/12 11:10:34.000,  53.537023686,  10.010881140,   53.5530,  5,  7,  7.7853,  3.2744,  9.3219, -1.9197, -3.2176,  4.3586,  0.00,   0.0
2020/05/12 11:10:35.000,  53.537011394,  10.011093764,   52.4042,  5,  7,  7.7839,  3.2742,  9.3207, -1.9188, -3.2165,  4.3563,  0.00,   0.0
2020/05/12 11:10:36.000,  53.536983860,  10.011328799,   55.0237,  5,  7,  7.7826,  3.2739,  9.3194, -1.9179, -3.2153,  4.3540,  0.00,   0.0
2020/05/12 11:10:37.000,  53.537003271,  10.011540661,   51.0640,  5,  7,  7.7813,  3.2737,  9.3182, -1.9170, -3.2141,  4.3517,  0.00,   0.0
2020/05/12 11:10:38.000,  53.536867437,  10.011699966,   53.5347,  5,  7,  7.7800,  3.2734,  9.3169, -1.9161, -3.2130,  4.3494,  0.00,   0.0
2020/05/12 11:10:39.000,  53.536980641,  10.011978070,   50.1806,  5,  6, 11.8555,  4.1254,  9.5820,  4.3355, -3.9937, -1.0845,  0.00,   0.0
2020/05/12 11:10:40.000,  53.536868595,  10.012150713,   52.3340,  5,  7,  7.7773,  3.2730,  9.3144, -1.9143, -3.2106,  4.3447,  0.00,   0.0
2020/05/12 11:10:41.000,  53.536824873,  10.012338933,   52.3119,  5,  7,  7.7760,  3.2727,  9.3131, -1.9134, -3.2095,  4.3424,  0.00,   0.0
2020/05/12 11:10:42.000,  53.536893204,  10.012583155,   49.2280,  5,  6, 11.8558,  4.1250,  9.5794,  4.3381, -3.9923, -1.1340,  0.00,   0.0
2020/05/12 11:10:43.000,  53.536802220,  10.012756571,   51.0911,  5,  7,  7.7733,  3.2722,  9.3106, -1.9116, -3.2071,  4.3377,  0.00,   0.0
2020/05/12 11:10:44.000,  53.536798381,  10.012956946,   50.3650,  5,  7,  7.7720,  3.2720,  9.3094, -1.9108, -3.2060,  4.3354,  0.00,   0.0
2020/05/12 11:10:45.000,  53.536761134,  10.013158729,   51.7650,  5,  6, 11.8562,  4.1246,  9.5768,  4.3407, -3.9910, -1.1815,  0.00,   0.0
2020/05/12 11:10:46.000,  53.536742890,  10.013347775,   50.7500,  5,  6, 11.8563,  4.1244,  9.5759,  4.3416, -3.9906, -1.1969,  0.00,   0.0
2020/05/12 11:10:47.000,  53.536726517,  10.013538323,   49.1174,  5,  6, 11.8564,  4.1243,  9.5751,  4.3425, -3.9902, -1.2121,  0.00,   0.0
2020/05/12 11:10:48.000,  53.536724017,  10.013731920,   47.7123,  5,  6, 11.8565,  4.1241,  9.5742,  4.3433, -3.9897, -1.2271,  0.00,   0.0
2020/05/12 11:10:49.000,  53.536650045,  10.013921619,   49.4534,  5,  7,  7.7654,  3.2708,  9.3031, -1.9063, -3.2001,  4.3238,  0.00,   0.0
2020/05/12 11:10:50.000,  53.536626578,  10.014121131,   49.4853,  5,  6, 11.8568,  4.1239,  9.5725,  4.3451, -3.9889, -1.2567,  0.00,   0.0
2020/05/12 11:10:51.000,  53.536349482,  10.014214801,   56.6761,  5,  7,  7.7628,  3.2703,  9.3005, -1.9045, -3.1978,  4.3192,  0.00,   0.0
2020/05/12 11:10:52.000,  53.536533603,  10.014523157,   50.6707,  5,  7,  7.7615,  3.2701,  9.2993, -1.9036, -3.1966,  4.3168,  0.00,   0.0
2020/05/12 11:10:53.000,  53.536510069,  10.014729670,   50.9086,  5,  7,  7.7601,  3.2698,  9.2980, -1.9027, -3.1955,  4.3145,  0.00,   0.0
2020/05/12 11:10:54.000,  53.536477377,  10.014920403,   49.5427,  5,  7,  7.7588,  3.2696,  9.2968, -1.9018, -3.1943,  4.3122,  0.00,   0.0
2020/05/12 11:10:55.000,  53.536450413,  10.015121727,   49.2186,  5,  7,  7.7575,  3.2693,  9.2955, -1.9009, -3.1931,  4.3099,  0.00,   0.0
2020/05/12 11:10:56.000,  53.536396734,  10.015314667,   49.7220,  5,  7,  7.7562,  3.2691,  9.2943, -1.9001, -3.1920,  4.3075,  0.00,   0.0
2020/05/12 11:10:57.000,  53.536362979,  10.015507731,   49.7912,  5,  7,  7.7549,  3.2688,  9.2930, -1.8992, -3.1908,  4.3052,  0.00,   0.0
2020/05/12 11:10:58.000,  53.536339880,  10.015702717,   49.3969,  5,  6, 11.8577,  4.1228,  9.5656,  4.3519, -3.9854, -1.3684,  0.00,   0.0
2020/05/12 11:10:59.000,  53.536289997,  10.015889770,   50.0918,  5,  6, 11.8578,  4.1227,  9.5648,  4.3528, -3.9850, -1.3817,  0.00,   0.0
2020/05/12 11:11:00.000,  53.536236022,  10.016070267,   50.2913,  5,  7,  7.7509,  3.2681,  9.2893, -1.8965, -3.1873,  4.2983,  0.00,   0.0
2020/05/12 11:11:01.000,  53.536233444,  10.016259072,   48.5983,  5,  7,  7.7496,  3.2679,  9.2880, -1.8956, -3.1861,  4.2959,  0.00,   0.0
2020/05/12 11:11:02.000,  53.536189107,  10.016468399,   49.4642,  5,  7,  7.7483,  3.2676,  9.2868, -1.8947, -3.1850,  4.2936,  0.00,   0.0
2020/05/12 11:11:03.000,  53.536123268,  10.016643941,   49.9112,  5,  7,  7.7469,  3.2674,  9.2855, -1.8939, -3.1838,  4.2913,  0.00,   0.0
2020/05/12 11:11:04.000,  53.536086798,  10.016823896,   49.3741,  5,  7,  7.7456,  3.2672,  9.2843, -1.8930, -3.1826,  4.2890,  0.00,   0.0
2020/05/12 11:11:05.000,  53.536043088,  10.017013474,   49.5617,  5,  7,  7.7443,  3.2669,  9.2830, -1.8921, -3.1815,  4.2866,  0.00,   0.0
2020/05/12 11:11:06.000,  53.535993950,  10.017226324,   51.2640,  5,  7,  7.7430,  3.2667,  9.2818, -1.8912, -3.1803,  4.2843,  0.00,   0.0
2020/05/12 11:11:07.000,  53.535970606,  10.017419644,   50.2604,  5,  7,  7.7417,  3.2665,  9.2805, -1.8903, -3.1791,  4.2820,  0.00,   0.0
2020/05/12 11:11:08.000,  53.535931184,  10.017621386,   50.1705,  5,  7,  7.7404,  3.2662,  9.2793, -1.8894, -3.1780,  4.2797,  0.00,   0.0
2020/05/12 11:11:09.000,  53.535888536,  10.017818540,   49.7998,  5,  7,  7.7390,  3.2660,  9.2780, -1.8886, -3.1768,  4.2773,  0.00,   0.0
2020/05/12 11:11:10.000,  53.535842350,  10.018015557,   49.6114,  5,  7,  7.7377,  3.2657,  9.2768, -1.8877, -3.1756,  4.2750,  0.00,   0.0
2020/05/12 11:11:11.000,  53.535783752,  10.018227469,   50.9189,  5,  7,  7.7364,  3.2655,  9.2755, -1.8868, -3.1745,  4.2727,  0.00,   0.0
2020/05/12 11:11:12.000,  53.535754097,  10.018405942,   49.3202,  5,  7,  7.7351,  3.2653,  9.2743, -1.8859, -3.1733,  4.2704,  0.00,   0.0
2020/05/12 11:11:13.000,  53.535694595,  10.018609011,   51.3431,  5,  7,  7.7338,  3.2650,  9.2730, -1.8850, -3.1721,  4.2681,  0.00,   0.0
2020/05/12 11:11:14.000,  53.535654554,  10.018789327,   51.4080,  5,  7,  7.7325,  3.2648,  9.2718, -1.8841, -3.1710,  4.2657,  0.00,   0.0
2020/05/12 11:11:15.000,  53.535626300,  10.018952074,   48.9431,  5,  7,  7.7312,  3.2646,  9.2705, -1.8833, -3.1698,  4.2634,  0.00,   0.0
2020/05/12 11:11:16.000,  53.535592352,  10.019115213,   47.7516,  5,  7,  7.7298,  3.2643,  9.2693, -1.8824, -3.1686,  4.2611,  0.00,   0.0
2020/05/12 11:11:17.000,  53.535548065,  10.019280435,   49.4741,  5,  7,  7.7285,  3.2641,  9.2680, -1.8815, -3.1675,  4.2588,  0.00,   0.0
2020/05/12 11:11:18.000,  53.535504921,  10.019429841,   50.8672,  5,  7,  7.7272,  3.2638,  9.2668, -1.8806, -3.1663,  4.2564,  0.00,   0.0
2020/05/12 11:11:19.000,  53.535498098,  10.019555352,   49.1120,  5,  7,  7.7259,  3.2636,  9.2655, -1.8798, -3.1651,  4.2541,  0.00,   0.0
2020/05/12 11:11:20.000,  53.535493332,  10.019693211,   49.7258,  5,  7,  7.7246,  3.2634,  9.2643, -1.8789, -3.1640,  4.2518,  0.00,   0.0
2020/05/12 11:11:21.000,  53.535501448,  10.019827276,   50.2286,  5,  7,  7.7233,  3.2631,  9.2630, -1.8780, -3.1628,  4.2494,  0.00,   0.0
2020/05/12 11:11:22.000,  53.535526823,  10.019954676,   51.6197,  5,  7,  7.7219,  3.2629,  9.2618, -1.8771, -3.1616,  4.2471,  0.00,   0.0
2020/05/12 11:11:23.000,  53.535569778,  10.020067867,   52.1115,  5,  7,  7.7206,  3.2627,  9.2606, -1.8763, -3.1604,  4.2448,  0.00,   0.0
2020/05/12 11:11:24.000,  53.535607761,  10.020183000,   53.2961,  5,  7,  7.7193,  3.2624,  9.2593, -1.8754, -3.1593,  4.2424,  0.00,   0.0
2020/05/12 11:11:25.000,  53.535645033,  10.020297841,   53.4742,  5,  7,  7.7180,  3.2622,  9.2581, -1.8745, -3.1581,  4.2401,  0.00,   0.0
2020/05/12 11:11:26.000,  53.535672801,  10.020411216,   53.9198,  5,  7,  7.7167,  3.2619,  9.2568, -1.8737, -3.1569,  4.2378,  0.00,   0.0
2020/05/12 11:11:27.000,  53.535694049,  10.020529541,   53.9929,  5,  8,  4.9227,  3.1638,  7.8181,  1.0977, -2.4554, -3.3901,  0.00,   0.0
2020/05/12 11:11:28.000,  53.535700090,  10.020650943,   53.7371,  5,  8,  4.9224,  3.1637,  7.8182,  1.0972, -2.4549, -3.3897,  0.00,   0.0
2020/05/12 11:11:29.000,  53.535691761,  10.020772750,   53.8390,  5,  8,  4.9222,  3.1636,  7.8183,  1.0967, -2.4543, -3.3893,  0.00,   0.0
2020/05/12 11:11:30.000,  53.535668393,  10.020898943,   53.9585,  5,  8,  4.9219,  3.1635,  7.8185,  1.0962, -2.4538, -3.3889,  0.00,   0.0
2020/05/12 11:11:31.000,  53.535643914,  10.021016297,   53.6229,  5,  8,  4.9216,  3.1634,  7.8186,  1.0957, -2.4532, -3.3885,  0.00,   0.0
2020/05/12 11:11:32.000,  53.535619198,  10.021140426,   53.7185,  5,  8,  4.9214,  3.1633,  7.8188,  1.0952, -2.4527, -3.3881,  0.00,   0.0
2020/05/12 11:11:33.000,  53.535586665,  10.021263826,   53.2881,  5,  8,  4.9211,  3.1631,  7.8189,  1.0947, -2.4521, -3.3877,  0.00,   0.0
2020/05/12 11:11:34.000,  53.535550540,  10.021379383,   53.9235,  5,  8,  4.9208,  3.1630,  7.8191,  1.0941, -2.4516, -3.3873,  0.00,   0.0
2020/05/12 11:11:35.000,  53.535524676,  10.021481627,   53.4288,  5,  8,  4.9205,  3.1629,  7.8192,  1.0936, -2.4510, -3.3869,  0.00,   0.0
2020/05/12 11:11:36.000,  53.535508315,  10.021590742,   54.0745,  5,  8,  4.9203,  3.1628,  7.8194,  1.0931, -2.4505, -3.3864,  0.00,   0.0
2020/05/12 11:11:37.000,  53.535507614,  10.021696001,   54.2479,  5,  8,  4.9200,  3.1627,  7.8195,  1.0926, -2.4499, -3.3860,  0.00,   0.0
2020/05/12 11:11:38.000,  53.535524911,  10.021773707,   53.2478,  5,  7,  7.7009,  3.2591,  9.2419, -1.8633, -3.1429,  4.2098,  0.00,   0.0
2020/05/12 11:11:39.000,  53.535565351,  10.021832801,   53.3142,  5,  7,  7.6996,  3.2589,  9.2407, -1.8624, -3.1417,  4.2075,  0.00,   0.0
2020/05/12 11:11:40.000,  53.535630932,  10.021878753,   55.6970,  5,  7,  7.6983,  3.2587,  9.2395, -1.8616, -3.1405,  4.2052,  0.00,   0.0
2020/05/12 11:11:41.000,  53.535673982,  10.021894258,   55.3885,  5,  7,  7.6970,  3.2584,  9.2382, -1.8607, -3.1394,  4.2028,  0.00,   0.0
2020/05/12 11:11:42.000,  53.535708096,  10.021908433,   53.3198,  5,  8,  4.9187,  3.1622,  7.8202,  1.0900, -2.4471, -3.3840,  0.00,   0.0
2020/05/12 11:11:43.000,  53.535714581,  10.021934082,   53.1856,  5,  8,  4.9184,  3.1621,  7.8203,  1.0895, -2.4465, -3.3836,  0.00,   0.0
2020/05/12 11:11:44.000,  53.535730556,  10.021946269,   53.8258,  5,  8,  4.9181,  3.1619,  7.8205,  1.0890, -2.4459, -3.3832,  0.00,   0.0
2020/05/12 11:11:45.000,  53.535752788,  10.021943873,   54.9389,  5,  8,  4.9179,  3.1618,  7.8206,  1.0885, -2.4454, -3.3828,  0.00,   0.0
2020/05/12 11:11:46.000,  53.535743902,  10.021951972,   52.7473,  5,  8,  4.9176,  3.1617,  7.8208,  1.0879, -2.4448, -3.3824,  0.00,   0.0
2020/05/12 11:11:47.000,  53.535781760,  10.021948583,   56.1063,  5,  8,  4.9173,  3.1616,  7.8209,  1.0874, -2.4442, -3.3819,  0.00,   0.0
2020/05/12 11:11:48.000,  53.535782274,  10.021948325,   55.5464,  5,  8,  4.9171,  3.1615,  7.8210,  1.0869, -2.4437, -3.3815,  0.00,   0.0
2020/05/12 11:11:49.000,  53.535779081,  10.021947302,   55.4051,  5,  8,  4.9168,  3.1614,  7.8212,  1.0864, -2.4431, -3.3811,  0.00,   0.0
2020/05/12 11:11:50.000,  53.535777182,  10.021948083,   55.5623,  5,  8,  4.9165,  3.1613,  7.8213,  1.0858, -2.4425, -3.3807,  0.00,   0.0
2020/05/12 11:11:51.000,  53.535777336,  10.021948142,   55.6423,  5,  8,  4.9163,  3.1612,  7.8215,  1.0853, -2.4419, -3.3803,  0.00,   0.0
2020/05/12 11:11:52.000,  53.535779303,  10.021947037,   55.6697,  5,  8,  4.9160,  3.1611,  7.8216,  1.0848, -2.4414, -3.3799,  0.00,   0.0
2020/05/12 11:11:53.000,  53.535777375,  10.021949585,   56.3919,  5,  8,  4.9157,  3.1609,  7.8217,  1.0843, -2.4408, -3.3795,  0.00,   0.0
2020/05/12 11:11:54.000,  53.535775301,  10.021947836,   56.6087,  5,  8,  4.9155,  3.1608,  7.8219,  1.0837, -2.4402, -3.3791,  0.00,   0.0
2020/05/12 11:11:55.000,  53.535773815,  10.021950222,   56.7192,  5,  8,  4.9152,  3.1607,  7.8220,  1.0832, -2.4396, -3.3786,  0.00,   0.0
2020/05/12 11:11:56.000,  53.535772065,  10.021950173,   56.8212,  5,  8,  4.9149,  3.1606,  7.8222,  1.0827, -2.4391, -3.3782,  0.00,   0.0
2020/05/12 11:11:57.000,  53.535769293,  10.021949020,   57.4654,  5,  8,  4.9147,  3.1605,  7.8223,  1.0821, -2.4385, -3.3778,  0.00,   0.0
2020/05/12 11:11:58.000,  53.535769136,  10.021948563,   56.6122,  5,  8,  4.9144,  3.1604,  7.8224,  1.0816, -2.4379, -3.3774,  0.00,   0.0
2020/05/12 11:11:59.000,  53.535770421,  10.021949220,   56.7462,  5,  8,  4.9141,  3.1603,  7.8226,  1.0811, -2.4373, -3.3770,  0.00,   0.0
2020/05/12 11:12:00.000,  53.535767822,  10.021948556,   57.2520,  5,  8,  4.9139,  3.1602,  7.8227,  1.0806, -2.4367, -3.3766,  0.00,   0.0
2020/05/12 11:12:01.000,  53.535771399,  10.021947218,   56.7213,  5,  8,  4.9136,  3.1601,  7.8228,  1.0800, -2.4362, -3.3762,  0.00,   0.0
2020/05/12 11:12:02.000,  53.535773290,  10.021945780,   56.8185,  5,  8,  4.9133,  3.1600,  7.8230,  1.0795, -2.4356, -3.3757,  0.00,   0.0
2020/05/12 11:12:03.000,  53.535774240,  10.021944901,   56.6966,  5,  8,  4.9130,  3.1598,  7.8231,  1.0790, -2.4350, -3.3753,  0.00,   0.0
2020/05/12 11:12:04.000,  53.535775474,  10.021944822,   56.6654,  5,  8,  4.9128,  3.1597,  7.8232,  1.0784, -2.4344, -3.3749,  0.00,   0.0
2020/05/12 11:12:05.000,  53.535772621,  10.021947595,   56.6625,  5,  8,  4.9125,  3.1596,  7.8234,  1.0779, -2.4339, -3.3745,  0.00,   0.0
2020/05/12 11:12:06.000,  53.535770051,  10.021950997,   57.2933,  5,  8,  4.9122,  3.1595,  7.8235,  1.0774, -2.4333, -3.3741,  0.00,   0.0
2020/05/12 11:12:07.000,  53.535772112,  10.021954498,   56.9057,  5,  8,  4.9120,  3.1594,  7.8236,  1.0769, -2.4327, -3.3737,  0.00,   0.0
2020/05/12 11:12:08.000,  53.535772378,  10.021959482,   57.0481,  5,  8,  4.9117,  3.1593,  7.8238,  1.0763, -2.4321, -3.3733,  0.00,   0.0
2020/05/12 11:12:09.000,  53.535771565,  10.021960142,   57.6276,  5,  8,  4.9114,  3.1592,  7.8239,  1.0758, -2.4315, -3.3728,  0.00,   0.0
2020/05/12 11:12:10.000,  53.535768613,  10.021962724,   57.7950,  5,  8,  4.9112,  3.1591,  7.8240,  1.0753, -2.4310, -3.3724,  0.00,   0.0
2020/05/12 11:12:11.000,  53.535765341,  10.021965735,   58.0108,  5,  8,  4.9109,  3.1590,  7.8242,  1.0747, -2.4304, -3.3720,  0.00,   0.0
2020/05/12 11:12:12.000,  53.535766198,  10.021964274,   58.1614,  5,  8,  4.9106,  3.1589,  7.8243,  1.0742, -2.4298, -3.3716,  0.00,   0.0
2020/05/12 11:12:13.000,  53.535766574,  10.021964552,   58.0066,  5,  8,  4.9104,  3.1588,  7.8244,  1.0737, -2.4292, -3.3712,  0.00,   0.0
2020/05/12 11:12:14.000,  53.535767767,  10.021963830,   57.6646,  5,  8,  4.9101,  3.1586,  7.8246,  1.0731, -2.4287, -3.3708,  0.00,   0.0
2020/05/12 11:12:15.000,  53.535769466,  10.021962586,   57.2399,  5,  8,  4.9098,  3.1585,  7.8247,  1.0726, -2.4281, -3.3703,  0.00,   0.0
2020/05/12 11:12:16.000,  53.535771837,  10.021958180,   56.8266,  5,  8,  4.9096,  3.1584,  7.8248,  1.0721, -2.4275, -3.3699,  0.00,   0.0
2020/05/12 11:12:17.000,  53.535768748,  10.021954024,   56.8709,  5,  8,  4.9093,  3.1583,  7.8250,  1.0715, -2.4269, -3.3695,  0.00,   0.0
2020/05/12 11:12:18.000,  53.535770873,  10.021955122,   55.8644,  5,  8,  4.9090,  3.1582,  7.8251,  1.0710, -2.4263, -3.3691,  0.00,   0.0
2020/05/12 11:12:19.000,  53.535781242,  10.021964712,   55.5901,  5,  8,  4.9088,  3.1581,  7.8252,  1.0705, -2.4257, -3.3687,  0.00,   0.0
2020/05/12 11:12:20.000,  53.535805311,  10.021992164,   55.2170,  5,  8,  4.9085,  3.1580,  7.8254,  1.0700, -2.4252, -3.3682,  0.00,   0.0
2020/05/12 11:12:21.000,  53.535834136,  10.022032902,   55.0768,  5,  8,  4.9082,  3.1579,  7.8255,  1.0694, -2.4246, -3.3678,  0.00,   0.0
2020/05/12 11:12:22.000,  53.535872966,  10.022096601,   54.3630,  5,  8,  4.9080,  3.1578,  7.8256,  1.0689, -2.4240, -3.3674,  0.00,   0.0
2020/05/12 11:12:23.000,  53.535917753,  10.022171650,   54.1553,  5,  8,  4.9077,  3.1577,  7.8257,  1.0684, -2.4235, -3.3670,  0.00,   0.0
2020/05/12 11:12:24.000,  53.535969875,  10.022239102,   53.7421,  5,  7,  7.1090,  4.0748,  8.9897,  3.7931, -4.1550, -5.8385,  0.00,   0.0
2020/05/12 11:12:25.000,  53.536038957,  10.022290101,   53.0534,  5,  8,  4.9072,  3.1575,  7.8260,  1.0674, -2.4223, -3.3662,  0.00,   0.0
2020/05/12 11:12:26.000,  53.536103421,  10.022308543,   53.7694,  5,  7,  7.1095,  4.0743,  8.9905,  3.7929, -4.1544, -5.8389,  0.00,   0.0
2020/05/12 11:12:27.000,  53.536195750,  10.022334311,   54.8149,  5,  7,  7.6369,  3.2478,  9.1817, -1.8221, -3.0853,  4.0955,  0.00,   0.0
2020/05/12 11:12:28.000,  53.536263207,  10.022368799,   55.6007,  5,  7,  7.6356,  3.2476,  9.1805, -1.8213, -3.0841,  4.0931,  0.00,   0.0
2020/05/12 11:12:29.000,  53.536368911,  10.022433034,   54.6873,  5,  8,  4.9061,  3.1570,  7.8265,  1.0653, -2.4200, -3.3645,  0.00,   0.0
2020/05/12 11:12:30.000,  53.536403983,  10.022504298,   50.3841,  5,  8,  4.9059,  3.1569,  7.8266,  1.0647, -2.4194, -3.3641,  0.00,   0.0
2020/05/12 11:12:31.000,  53.536563824,  10.022563128,   54.8660,  5,  8,  4.9056,  3.1568,  7.8267,  1.0642, -2.4188, -3.3637,  0.00,   0.0
2020/05/12 11:12:32.000,  53.536647937,  10.022632105,   53.2020,  5,  8,  4.9053,  3.1567,  7.8269,  1.0637, -2.4183, -3.3633,  0.00,   0.0
2020/05/12 11:12:33.000,  53.536770263,  10.022694577,   54.0484,  5,  8,  4.9051,  3.1566,  7.8270,  1.0632, -2.4177, -3.3629,  0.00,   0.0
2020/05/12 11:12:34.000,  53.536869960,  10.022764045,   53.5301,  5,  8,  4.9048,  3.1565,  7.8271,  1.0627, -2.4171, -3.3624,  0.00,   0.0
2020/05/12 11:12:35.000,  53.536969464,  10.022833487,   53.7160,  5,  8,  4.9045,  3.1564,  7.8272,  1.0621, -2.4165, -3.3620,  0.00,   0.0
2020/05/12 11:12:36.000,  53.537075727,  10.022899929,   53.7062,  5,  8,  4.9043,  3.1563,  7.8274,  1.0616, -2.4160, -3.3616,  0.00,   0.0
2020/05/12 11:12:37.000,  53.537174247,  10.022960074,   54.3132,  5,  8,  4.9040,  3.1562,  7.8275,  1.0611, -2.4154, -3.3612,  0.00,   0.0
2020/05/12 11:12:38.000,  53.537268432,  10.023021113,   54.1136,  5,  8,  4.9038,  3.1561,  7.8276,  1.0606, -2.4148, -3.3608,  0.00,   0.0
2020/05/12 11:12:39.000,  53.537357343,  10.023083810,   53.7785,  5,  8,  4.9035,  3.1560,  7.8277,  1.0601, -2.4142, -3.3604,  0.00,   0.0
2020/05/12 11:12:40.000,  53.537442871,  10.023147379,   53.8435,  5,  8,  4.9032,  3.1559,  7.8279,  1.0595, -2.4137, -3.3600,  0.00,   0.0
2020/05/12 11:12:41.000,  53.537514509,  10.023209687,   54.4489,  5,  8,  4.9030,  3.1558,  7.8280,  1.0590, -2.4131, -3.3595,  0.00,   0.0
2020/05/12 11:12:42.000,  53.537583014,  10.023268530,   55.3289,  5,  7,  7.6173,  3.2445,  9.1635, -1.8096, -3.0678,  4.0604,  0.00,   0.0
2020/05/12 11:12:43.000,  53.537625594,  10.023332861,   54.8225,  5,  8,  4.9024,  3.1556,  7.8282,  1.0580, -2.4119, -3.3587,  0.00,   0.0
2020/05/12 11:12:44.000,  53.537654887,  10.023397357,   54.2307,  5,  8,  4.9022,  3.1554,  7.8283,  1.0574, -2.4113, -3.3583,  0.00,   0.0
2020/05/12 11:12:45.000,  53.537662888,  10.023462877,   53.4458,  5,  8,  4.9019,  3.1553,  7.8285,  1.0569, -2.4108, -3.3579,  0.00,   0.0
2020/05/12 11:12:46.000,  53.537672032,  10.023524969,   54.1585,  5,  8,  4.9016,  3.1552,  7.8286,  1.0564, -2.4102, -3.3574,  0.00,   0.0
2020/05/12 11:12:47.000,  53.537660271,  10.023600359,   53.8170,  5,  8,  4.9014,  3.1551,  7.8287,  1.0559, -2.4096, -3.3570,  0.00,   0.0
2020/05/12 11:12:48.000,  53.537629873,  10.023665509,   53.3488,  5,  8,  4.9011,  3.1550,  7.8288,  1.0553, -2.4090, -3.3566,  0.00,   0.0
2020/05/12 11:12:49.000,  53.537570299,  10.023739219,   53.3547,  5,  8,  4.9008,  3.1549,  7.8289,  1.0548, -2.4085, -3.3561,  0.00,   0.0
2020/05/12 11:12:50.000,  53.537503854,  10.023806054,   52.7699,  5,  8,  4.9006,  3.1548,  7.8291,  1.0543, -2.4079, -3.3557,  0.00,   0.0
2020/05/12 11:12:51.000,  53.537407536,  10.023883015,   52.4810,  5,  5, 13.2983,  4.2717, 10.6094,  3.5592, -4.5971,  4.7562,  0.00,   0.0
2020/05/12 11:12:52.000,  53.537345402,  10.023964800,   52.9572,  5,  8,  4.9000,  3.1546,  7.8293,  1.0532, -2.4067, -3.3548,  0.00,   0.0
2020/05/12 11:12:53.000,  53.537259687,  10.024044250,   52.7466,  5,  8,  4.8997,  3.1545,  7.8294,  1.0527, -2.4062, -3.3544,  0.00,   0.0
2020/05/12 11:12:54.000,  53.537153942,  10.024113229,   53.5822,  5,  8,  4.8995,  3.1544,  7.8295,  1.0522, -2.4056, -3.3540,  0.00,   0.0
2020/05/12 11:12:55.000,  53.537061090,  10.024192360,   54.6537,  5,  8,  4.8992,  3.1543,  7.8297,  1.0516, -2.4050, -3.3535,  0.00,   0.0
2020/05/12 11:12:56.000,  53.536939815,  10.024255644,   54.3850,  5,  8,  4.8989,  3.1542,  7.8298,  1.0511, -2.4044, -3.3531,  0.00,   0.0
2020/05/12 11:12:57.000,  53.536833508,  10.024321725,   52.7146,  5,  8,  4.8987,  3.1541,  7.8299,  1.0506, -2.4038, -3.3526,  0.00,   0.0
2020/05/12 11:12:58.000,  53.536695283,  10.024353318,   53.7187,  5,  8,  4.8984,  3.1540,  7.8300,  1.0500, -2.4033, -3.3522,  0.00,   0.0
2020/05/12 11:12:59.000,  53.536579088,  10.024388243,   53.6303,  5,  8,  4.8981,  3.1539,  7.8301,  1.0495, -2.4027, -3.3518,  0.00,   0.0
2020/05/12 11:13:00.000,  53.536459973,  10.024410301,   53.9560,  5,  8,  4.8978,  3.1538,  7.8303,  1.0489, -2.4021, -3.3513,  0.00,   0.0
2020/05/12 11:13:01.000,  53.536343358,  10.024423699,   53.8822,  5,  8,  4.8976,  3.1537,  7.8304,  1.0484, -2.4015, -3.3509,  0.00,   0.0
2020/05/12 11:13:02.000,  53.536225111,  10.024430910,   53.9315,  5,  8,  4.8973,  3.1536,  7.8305,  1.0479, -2.4009, -3.3504,  0.00,   0.0
2020/05/12 11:13:03.000,  53.536107434,  10.024425928,   54.0953,  5,  8,  4.8970,  3.1535,  7.8306,  1.0473, -2.4003, -3.3500,  0.00,   0.0
2020/05/12 11:13:04.000,  53.535990402,  10.024415587,   53.8472,  5,  8,  4.8967,  3.1534,  7.8307,  1.0468, -2.3997, -3.3496,  0.00,   0.0
2020/05/12 11:13:05.000,  53.535871086,  10.024395900,   53.9772,  5,  8,  4.8965,  3.1533,  7.8309,  1.0462, -2.3991, -3.3491,  0.00,   0.0
2020/05/12 11:13:06.000,  53.535754073,  10.024365765,   53.7486,  5,  8,  4.8962,  3.1531,  7.8310,  1.0457, -2.3985, -3.3487,  0.00,   0.0
2020/05/12 11:13:07.000,  53.535636887,  10.024324705,   53.7925,  5,  8,  4.8959,  3.1530,  7.8311,  1.0451, -2.3979, -3.3482,  0.00,   0.0
2020/05/12 11:13:08.000,  53.535527143,  10.024293508,   57.2613,  5,  8,  4.8956,  3.1529,  7.8312,  1.0446, -2.3973, -3.3478,  0.00,   0.0
2020/05/12 11:13:09.000,  53.535399140,  10.024242359,   58.9312,  5,  8,  4.8954,  3.1528,  7.8313,  1.0440, -2.3967, -3.3474,  0.00,   0.0
2020/05/12 11:13:10.000,  53.535304321,  10.024145998,   56.6015,  5,  8,  4.8951,  3.1527,  7.8314,  1.0435, -2.3961, -3.3469,  0.00,   0.0
2020/05/12 11:13:11.000,  53.535164123,  10.024082170,   61.2961,  5,  7,  4.8956,  3.8206,  8.0637,  0.9458, -3.1439, -3.3207,  0.00,   0.0
2020/05/12 11:13:12.000,  53.535078237,  10.023964452,   57.6912,  5,  8,  4.8946,  3.1525,  7.8317,  1.0423, -2.3949, -3.3460,  0.00,   0.0
2020/05/12 11:13:13.000,  53.534935591,  10.023832837,   58.7114,  5,  8,  4.8943,  3.1524,  7.8318,  1.0418, -2.3943, -3.3456,  0.00,   0.0
2020/05/12 11:13:14.000,  53.534866161,  10.023757578,   51.7911,  5,  7,  4.9481,  3.5532,  8.0502,  1.5101, -1.6361, -3.1355,  0.00,   0.0
2020/05/12 11:13:15.000,  53.534755863,  10.023638755,   54.9358,  5,  7,  5.6867,  3.6025,  8.7043, -1.9922,  0.9470, -4.7104,  0.00,   0.0
2020/05/12 11:13:16.000,  53.534631342,  10.023534373,   55.9625,  5,  8,  4.8935,  3.1521,  7.8321,  1.0401, -2.3925, -3.3443,  0.00,   0.0
2020/05/12 11:13:17.000,  53.534522231,  10.023441465,   53.0487,  5,  7,  7.5723,  3.2368,  9.1210, -1.7813, -3.0268,  3.9789,  0.00,   0.0
2020/05/12 11:13:18.000,  53.534424012,  10.023350574,   54.9733,  5,  7,  7.5710,  3.2365,  9.1198, -1.7805, -3.0256,  3.9765,  0.00,   0.0
2020/05/12 11:13:19.000,  53.534302009,  10.023255450,   55.1908,  5,  7,  7.5697,  3.2363,  9.1186, -1.7797, -3.0244,  3.9742,  0.00,   0.0
2020/05/12 11:13:20.000,  53.534180539,  10.023154327,   50.9619,  5,  7,  7.5685,  3.2361,  9.1174, -1.7789, -3.0232,  3.9719,  0.00,   0.0
2020/05/12 11:13:21.000,  53.534161531,  10.023043492,   60.5978,  5,  8,  4.8921,  3.1515,  7.8327,  1.0373, -2.3894, -3.3421,  0.00,   0.0
2020/05/12 11:13:22.000,  53.533996134,  10.022957389,   54.0948,  5,  7,  7.5659,  3.2357,  9.1150, -1.7774, -3.0209,  3.9672,  0.00,   0.0
2020/05/12 11:13:23.000,  53.533895837,  10.022853308,   56.9845,  5,  7,  7.5646,  3.2355,  9.1138, -1.7766, -3.0197,  3.9649,  0.00,   0.0
2020/05/12 11:13:24.000,  53.533911707,  10.022721150,   69.9245,  5,  8,  4.8913,  3.1512,  7.8330,  1.0356, -2.3876, -3.3408,  0.00,   0.0
2020/05/12 11:13:25.000,  53.533656865,  10.022643212,   57.4707,  5,  7,  7.5621,  3.2350,  9.1114, -1.7750, -3.0174,  3.9602,  0.00,   0.0
2020/05/12 11:13:26.000,  53.533721876,  10.022446347,   72.7985,  5,  6,  5.2016,  3.8820, 10.5731,  1.4474, -3.8220, -4.8021,  0.00,   0.0
2020/05/12 11:13:27.000,  53.533640087,  10.022466123,   62.3347,  5,  7,  7.1222,  4.0590,  9.0142,  3.7838, -4.1357, -5.8520,  0.00,   0.0
2020/05/12 11:13:28.000,  53.533276340,  10.022316859,   53.7878,  5,  7,  7.5582,  3.2344,  9.1078, -1.7727, -3.0138,  3.9532,  0.00,   0.0
2020/05/12 11:13:29.000,  53.533228521,  10.022149577,   70.2955,  5,  8,  4.8899,  3.1507,  7.8336,  1.0328, -2.3845, -3.3385,  0.00,   0.0
2020/05/12 11:13:30.000,  53.533048686,  10.022055515,   56.4997,  5,  7,  7.5557,  3.2339,  9.1054, -1.7711, -3.0114,  3.9486,  0.00,   0.0
2020/05/12 11:13:31.000,  53.532912116,  10.021982321,   57.7365,  5,  7,  7.5544,  3.2337,  9.1042, -1.7703, -3.0103,  3.9462,  0.00,   0.0
2020/05/12 11:13:32.000,  53.532834111,  10.021841764,   60.3561,  5,  7,  7.5531,  3.2335,  9.1030, -1.7696, -3.0091,  3.9439,  0.00,   0.0
2020/05/12 11:13:33.000,  53.532851435,  10.021755630,   69.7026,  5,  8,  4.8888,  3.1503,  7.8340,  1.0305, -2.3820, -3.3368,  0.00,   0.0
2020/05/12 11:13:34.000,  53.532708322,  10.021650686,   68.7496,  5,  8,  4.8886,  3.1502,  7.8341,  1.0300, -2.3814, -3.3363,  0.00,   0.0
2020/05/12 11:13:35.000,  53.532459351,  10.021565723,   53.5602,  5,  6,  7.7021,  3.3389,  9.6576, -2.0970, -2.5165,  3.2495,  0.00,   0.0
2020/05/12 11:13:36.000,  53.532437915,  10.021427072,   63.0669,  5,  8,  4.8880,  3.1499,  7.8344,  1.0288, -2.3802, -3.3354,  0.00,   0.0
2020/05/12 11:13:37.000,  53.532241196,  10.021329545,   55.1231,  5,  7,  7.5467,  3.2324,  9.0970, -1.7657, -3.0032,  3.9323,  0.00,   0.0
2020/05/12 11:13:38.000,  53.532153466,  10.021184340,   63.9603,  5,  8,  4.8875,  3.1497,  7.8346,  1.0277, -2.3789, -3.3345,  0.00,   0.0
2020/05/12 11:13:39.000,  53.532042357,  10.021127942,   58.3519,  5,  8,  4.8872,  3.1496,  7.8347,  1.0271, -2.3783, -3.3341,  0.00,   0.0
2020/05/12 11:13:40.000,  53.531865597,  10.021026656,   55.2514,  5,  8,  4.8869,  3.1495,  7.8348,  1.0266, -2.3777, -3.3336,  0.00,   0.0
2020/05/12 11:13:41.000,  53.531770290,  10.020918596,   54.3719,  5,  8,  4.8866,  3.1494,  7.8349,  1.0260, -2.3771, -3.3332,  0.00,   0.0
2020/05/12 11:13:42.000,  53.531667593,  10.020820236,   54.1298,  5,  8,  4.8864,  3.1493,  7.8350,  1.0254, -2.3765, -3.3328,  0.00,   0.0
2020/05/12 11:13:43.000,  53.531546372,  10.020708127,   54.0692,  5,  8,  4.8861,  3.1492,  7.8351,  1.0249, -2.3759, -3.3323,  0.00,   0.0
2020/05/12 11:13:44.000,  53.531429956,  10.020593550,   53.2956,  5,  8,  4.8858,  3.1491,  7.8352,  1.0243, -2.3752, -3.3319,  0.00,   0.0
2020/05/12 11:13:45.000,  53.531327101,  10.020464754,   52.8640,  5,  8,  4.8856,  3.1490,  7.8353,  1.0237, -2.3746, -3.3314,  0.00,   0.0
2020/05/12 11:13:46.000,  53.531229275,  10.020325842,   53.0265,  5,  8,  4.8853,  3.1489,  7.8354,  1.0232, -2.3740, -3.3310,  0.00,   0.0
2020/05/12 11:13:47.000,  53.531124853,  10.020184082,   52.7893,  5,  7,  4.8860,  3.8179,  8.0744,  0.9109, -3.1371, -3.3011,  0.00,   0.0
2020/05/12 11:13:48.000,  53.531019108,  10.020036842,   53.4044,  5,  8,  4.8847,  3.1487,  7.8356,  1.0220, -2.3727, -3.3301,  0.00,   0.0
2020/05/12 11:13:49.000,  53.530912436,  10.019908615,   52.6927,  5,  8,  4.8845,  3.1486,  7.8357,  1.0214, -2.3721, -3.3296,  0.00,   0.0
2020/05/12 11:13:50.000,  53.530806762,  10.019763413,   52.9005,  5,  8,  4.8842,  3.1485,  7.8358,  1.0209, -2.3715, -3.3292,  0.00,   0.0
2020/05/12 11:13:51.000,  53.530705901,  10.019617209,   53.9563,  5,  7,  7.5289,  3.2295,  9.0802, -1.7549, -2.9867,  3.8996,  0.00,   0.0
2020/05/12 11:13:52.000,  53.530562887,  10.019519317,   50.0851,  5,  7,  7.5276,  3.2292,  9.0790, -1.7541, -2.9855,  3.8973,  0.00,   0.0
2020/05/12 11:13:53.000,  53.530458463,  10.019385373,   51.8656,  5,  7,  7.5264,  3.2290,  9.0778, -1.7534, -2.9843,  3.8949,  0.00,   0.0
2020/05/12 11:13:54.000,  53.530358177,  10.019271168,   52.9078,  5,  8,  4.8831,  3.1480,  7.8363,  1.0186, -2.3690, -3.3274,  0.00,   0.0
2020/05/12 11:13:55.000,  53.530229383,  10.019169926,   51.5649,  5,  7,  7.5238,  3.2286,  9.0754, -1.7518, -2.9820,  3.8903,  0.00,   0.0
2020/05/12 11:13:56.000,  53.530110584,  10.019067456,   51.5894,  5,  7,  7.5225,  3.2284,  9.0742, -1.7511, -2.9808,  3.8880,  0.00,   0.0
2020/05/12 11:13:57.000,  53.529991532,  10.018970863,   51.1306,  5,  7,  7.5213,  3.2282,  9.0730, -1.7503, -2.9796,  3.8856,  0.00,   0.0
2020/05/12 11:13:58.000,  53.529904266,  10.018855380,   54.2015,  5,  8,  4.8954,  3.1669,  7.8141,  0.7125, -2.4475, -3.3506,  0.00,   0.0
2020/05/12 11:13:59.000,  53.529760144,  10.018759018,   50.9593,  5,  8,  4.8951,  3.1668,  7.8142,  0.7117, -2.4469, -3.3502,  0.00,   0.0
2020/05/12 11:14:00.000,  53.529629107,  10.018669410,   48.5115,  5,  8,  4.8948,  3.1666,  7.8143,  0.7109, -2.4463, -3.3497,  0.00,   0.0
2020/05/12 11:14:01.000,  53.529519217,  10.018510262,   54.5322,  5,  7,  4.8996,  3.8899,  8.0785, -0.0279, -3.2572, -3.2803,  0.00,   0.0
2020/05/12 11:14:02.000,  53.529384266,  10.018418893,   53.0407,  5,  7,  4.8993,  3.8899,  8.0788, -0.0509, -3.2570, -3.2797,  0.00,   0.0
2020/05/12 11:14:03.000,  53.529262127,  10.018341714,   48.2215,  5,  6,  9.4035,  8.0612, 12.9827,  7.5278, -9.0753, -9.6085,  0.00,   0.0
2020/05/12 11:14:04.000,  53.529200580,  10.018224785,   53.5574,  5,  8,  4.8936,  3.1662,  7.8147,  0.7076, -2.4438, -3.3481,  0.00,   0.0
2020/05/12 11:14:05.000,  53.529089491,  10.018116829,   54.4347,  5,  8,  4.8934,  3.1661,  7.8148,  0.7068, -2.4431, -3.3476,  0.00,   0.0
2020/05/12 11:14:06.000,  53.528952346,  10.018022389,   49.7670,  5,  8,  4.8931,  3.1660,  7.8149,  0.7060, -2.4425, -3.3472,  0.00,   0.0
2020/05/12 11:14:07.000,  53.528835094,  10.017912879,   52.4235,  5,  7,  4.8980,  3.8895,  8.0802, -0.1079, -3.2560, -3.2770,  0.00,   0.0
2020/05/12 11:14:08.000,  53.528736098,  10.017809769,   49.3121,  5,  8,  4.8925,  3.1657,  7.8151,  0.7044, -2.4412, -3.3463,  0.00,   0.0
2020/05/12 11:14:09.000,  53.528596262,  10.017697152,   52.7227,  5,  7,  4.8974,  3.8893,  8.0808, -0.1236, -3.2556, -3.2758,  0.00,   0.0
2020/05/12 11:14:10.000,  53.528499373,  10.017623681,   49.0629,  5,  8,  6.3260,  4.0274,  8.9920,  3.5954, -4.1622, -6.0901,  0.00,   0.0
2020/05/12 11:14:11.000,  53.528391880,  10.017496627,   52.0866,  5,  9,  4.3420,  3.1429,  7.6189,  1.1580, -2.3010, -3.8876,  0.00,   0.0
2020/05/12 11:14:12.000,  53.528270402,  10.017417659,   52.2104,  5,  8,  4.8914,  3.1653,  7.8155,  0.7011, -2.4387, -3.3446,  0.00,   0.0
2020/05/12 11:14:13.000,  53.528176317,  10.017312499,   50.1721,  5,  9,  4.3413,  3.1427,  7.6193,  1.1568, -2.2999, -3.8865,  0.00,   0.0
2020/05/12 11:14:14.000,  53.528040203,  10.017198445,   53.1821,  5,  9,  4.3410,  3.1426,  7.6196,  1.1562, -2.2993, -3.8860,  0.00,   0.0
2020/05/12 11:14:15.000,  53.527925118,  10.017094491,   50.7971,  5,  9,  4.3407,  3.1425,  7.6198,  1.1556, -2.2987, -3.8855,  0.00,   0.0
2020/05/12 11:14:16.000,  53.527816700,  10.017000272,   50.7593,  5,  9,  4.3403,  3.1424,  7.6200,  1.1550, -2.2981, -3.8849,  0.00,   0.0
2020/05/12 11:14:17.000,  53.527696946,  10.016917995,   50.5773,  5,  9,  4.3400,  3.1423,  7.6202,  1.1543, -2.2976, -3.8844,  0.00,   0.0
2020/05/12 11:14:18.000,  53.527580033,  10.016822802,   50.7993,  5,  9,  4.3397,  3.1422,  7.6204,  1.1537, -2.2970, -3.8839,  0.00,   0.0
2020/05/12 11:14:19.000,  53.527464658,  10.016736064,   51.3190,  5,  9,  4.3394,  3.1422,  7.6207,  1.1531, -2.2964, -3.8834,  0.00,   0.0
2020/05/12 11:14:20.000,  53.527328174,  10.016664860,   52.1432,  5,  8,  4.8891,  3.1644,  7.8163,  0.6946, -2.4337, -3.3412,  0.00,   0.0
2020/05/12 11:14:21.000,  53.527217539,  10.016573676,   50.8195,  5,  8,  4.8888,  3.1643,  7.8163,  0.6937, -2.4331, -3.3408,  0.00,   0.0
2020/05/12 11:14:22.000,  53.527096672,  10.016489588,   51.1865,  5,  8,  4.8885,  3.1642,  7.8164,  0.6929, -2.4324, -3.3403,  0.00,   0.0
2020/05/12 11:14:23.000,  53.526966693,  10.016396761,   51.2278,  5,  9,  4.3380,  3.1418,  7.6215,  1.1506, -2.2941, -3.8813,  0.00,   0.0
2020/05/12 11:14:24.000,  53.526858342,  10.016291952,   51.8514,  5,  9,  4.3377,  3.1417,  7.6217,  1.1500, -2.2935, -3.8807,  0.00,   0.0
2020/05/12 11:14:25.000,  53.526746995,  10.016199945,   51.9880,  5,  9,  4.3374,  3.1416,  7.6220,  1.1494, -2.2930, -3.8802,  0.00,   0.0
2020/05/12 11:14:26.000,  53.526624371,  10.016092975,   52.4393,  5,  9,  4.3371,  3.1415,  7.6222,  1.1488, -2.2924, -3.8797,  0.00,   0.0
2020/05/12 11:14:27.000,  53.526502695,  10.015977090,   51.7526,  5,  9,  4.3367,  3.1414,  7.6224,  1.1481, -2.2918, -3.8792,  0.00,   0.0
2020/05/12 11:14:28.000,  53.526372911,  10.015880179,   50.5177,  5,  9,  4.3364,  3.1413,  7.6226,  1.1475, -2.2912, -3.8786,  0.00,   0.0
2020/05/12 11:14:29.000,  53.526260278,  10.015759698,   50.6856,  5,  9,  4.3361,  3.1412,  7.6228,  1.1469, -2.2907, -3.8781,  0.00,   0.0
2020/05/12 11:14:30.000,  53.526147744,  10.015623883,   49.1462,  5,  9,  4.3358,  3.1411,  7.6230,  1.1463, -2.2901, -3.8776,  0.00,   0.0
2020/05/12 11:14:31.000,  53.526001116,  10.015538333,   53.8023,  5,  9,  4.3354,  3.1410,  7.6233,  1.1457, -2.2895, -3.8770,  0.00,   0.0
2020/05/12 11:14:32.000,  53.525888470,  10.015419789,   52.8366,  5,  9,  4.3351,  3.1409,  7.6235,  1.1450, -2.2889, -3.8765,  0.00,   0.0
2020/05/12 11:14:33.000,  53.525757410,  10.015308029,   52.2132,  5,  9,  4.3348,  3.1408,  7.6237,  1.1444, -2.2883, -3.8760,  0.00,   0.0
2020/05/12 11:14:34.000,  53.525643912,  10.015177513,   50.5788,  5,  9,  4.3345,  3.1407,  7.6239,  1.1438, -2.2877, -3.8755,  0.00,   0.0
2020/05/12 11:14:35.000,  53.525519825,  10.015072312,   50.8826,  5,  9,  4.3341,  3.1406,  7.6241,  1.1432, -2.2872, -3.8749,  0.00,   0.0
2020/05/12 11:14:36.000,  53.525405499,  10.014961075,   50.7980,  5,  9,  4.3338,  3.1405,  7.6243,  1.1425, -2.2866, -3.8744,  0.00,   0.0
2020/05/12 11:14:37.000,  53.525282849,  10.014849624,   51.0548,  5,  9,  4.3335,  3.1404,  7.6245,  1.1419, -2.2860, -3.8739,  0.00,   0.0
2020/05/12 11:14:38.000,  53.525165028,  10.014746669,   51.3492,  5,  9,  4.3332,  3.1403,  7.6248,  1.1413, -2.2854, -3.8733,  0.00,   0.0
2020/05/12 11:14:39.000,  53.525047028,  10.014638532,   51.3285,  5,  9,  4.3328,  3.1402,  7.6250,  1.1407, -2.2848, -3.8728,  0.00,   0.0
2020/05/12 11:14:40.000,  53.524925934,  10.014525432,   51.5972,  5,  8,  4.8834,  3.1622,  7.8180,  0.6779, -2.4210, -3.3326,  0.00,   0.0
2020/05/12 11:14:41.000,  53.524802836,  10.014412771,   51.3441,  5,  9,  4.3322,  3.1400,  7.6254,  1.1394, -2.2837, -3.8718,  0.00,   0.0
2020/05/12 11:14:42.000,  53.524689661,  10.014297857,   52.4447,  5,  9,  4.3319,  3.1399,  7.6256,  1.1388, -2.2831, -3.8712,  0.00,   0.0
2020/05/12 11:14:43.000,  53.524562220,  10.014190865,   51.5505,  5,  9,  4.3315,  3.1398,  7.6258,  1.1382, -2.2825, -3.8707,  0.00,   0.0
2020/05/12 11:14:44.000,  53.524429132,  10.014080579,   50.7760,  5,  8,  4.8823,  3.1618,  7.8184,  0.6745, -2.4185, -3.3308,  0.00,   0.0
2020/05/12 11:14:45.000,  53.524321738,  10.013959425,   51.7950,  5,  9,  4.3309,  3.1397,  7.6262,  1.1369, -2.2813, -3.8696,  0.00,   0.0
2020/05/12 11:14:46.000,  53.524208525,  10.013831926,   51.9216,  5,  9,  4.3305,  3.1396,  7.6264,  1.1363, -2.2807, -3.8691,  0.00,   0.0
2020/05/12 11:14:47.000,  53.524094981,  10.013692718,   51.6795,  5,  8,  4.8814,  3.1614,  7.8186,  0.6720, -2.4165, -3.3295,  0.00,   0.0
2020/05/12 11:14:48.000,  53.524041800,  10.013529955,   56.8968,  5,  8,  4.8811,  3.1613,  7.8187,  0.6711, -2.4159, -3.3291,  0.00,   0.0
2020/05/12 11:14:49.000,  53.523960213,  10.013370178,   58.7007,  5,  8,  4.8809,  3.1612,  7.8188,  0.6702, -2.4152, -3.3287,  0.00,   0.0
2020/05/12 11:14:50.000,  53.523830527,  10.013193395,   57.0042,  5,  7,  4.8864,  3.8863,  8.0923, -0.2992, -3.2473, -3.2529,  0.00,   0.0
2020/05/12 11:14:51.000,  53.523683316,  10.013061405,   50.6637,  5,  7,  4.8861,  3.8862,  8.0925, -0.3023, -3.2471, -3.2523,  0.00,   0.0
2020/05/12 11:14:52.000,  53.523606181,  10.012888758,   51.8741,  5,  7,  4.8858,  3.8862,  8.0928, -0.3053, -3.2469, -3.2517,  0.00,   0.0
2020/05/12 11:14:53.000,  53.523528880,  10.012739310,   51.5601,  5,  9,  4.3283,  3.1389,  7.6279,  1.1318, -2.2766, -3.8654,  0.00,   0.0
2020/05/12 11:14:54.000,  53.523469489,  10.012602393,   51.2977,  5,  9,  4.3280,  3.1388,  7.6281,  1.1312, -2.2760, -3.8648,  0.00,   0.0
2020/05/12 11:14:55.000,  53.523410574,  10.012456165,   52.2496,  5,  9,  4.3276,  3.1387,  7.6283,  1.1306, -2.2754, -3.8643,  0.00,   0.0
2020/05/12 11:14:56.000,  53.523352541,  10.012343960,   52.5982,  5,  9,  4.3273,  3.1386,  7.6285,  1.1300, -2.2748, -3.8638,  0.00,   0.0
2020/05/12 11:14:57.000,  53.523308753,  10.012231969,   53.5776,  5,  9,  4.3270,  3.1385,  7.6287,  1.1293, -2.2742, -3.8632,  0.00,   0.0
2020/05/12 11:14:58.000,  53.523256657,  10.012119045,   54.5227,  5,  9,  4.3267,  3.1384,  7.6289,  1.1287, -2.2736, -3.8627,  0.00,   0.0
2020/05/12 11:14:59.000,  53.523225621,  10.011976171,   53.2636,  5,  9,  4.3264,  3.1383,  7.6291,  1.1281, -2.2730, -3.8622,  0.00,   0.0
2020/05/12 11:15:00.000,  53.523181093,  10.011821628,   54.1073,  5,  9,  4.3260,  3.1382,  7.6293,  1.1274, -2.2725, -3.8617,  0.00,   0.0
2020/05/12 11:15:01.000,  53.523164953,  10.011625701,   53.4589,  5,  9,  4.3257,  3.1381,  7.6295,  1.1268, -2.2718, -3.8611,  0.00,   0.0
2020/05/12 11:15:02.000,  53.523131280,  10.011438480,   52.8596,  5,  9,  4.3254,  3.1380,  7.6297,  1.1262, -2.2712, -3.8606,  0.00,   0.0
2020/05/12 11:15:03.000,  53.523107553,  10.011241371,   51.9741,  5,  9,  4.3251,  3.1379,  7.6299,  1.1255, -2.2706, -3.8601,  0.00,   0.0
2020/05/12 11:15:04.000,  53.523087843,  10.011049338,   53.0269,  5,  9,  4.3248,  3.1378,  7.6302,  1.1249, -2.2700, -3.8595,  0.00,   0.0
2020/05/12 11:15:05.000,  53.523077050,  10.010848635,   53.1630,  5,  9,  4.3245,  3.1377,  7.6304,  1.1243, -2.2694, -3.8590,  0.00,   0.0
2020/05/12 11:15:06.000,  53.523082966,  10.010645831,   52.9777,  5,  9,  4.3242,  3.1377,  7.6306,  1.1236, -2.2688, -3.8585,  0.00,   0.0
2020/05/12 11:15:07.000,  53.523094329,  10.010453503,   52.6911,  5,  9,  4.3238,  3.1376,  7.6308,  1.1230, -2.2682, -3.8580,  0.00,   0.0
2020/05/12 11:15:08.000,  53.523111855,  10.010264310,   52.2846,  5,  9,  4.3235,  3.1375,  7.6310,  1.1224, -2.2676, -3.8574,  0.00,   0.0
2020/05/12 11:15:09.000,  53.523133718,  10.010082378,   52.4487,  5,  9,  4.3232,  3.1374,  7.6312,  1.1217, -2.2670, -3.8569,  0.00,   0.0
2020/05/12 11:15:10.000,  53.523160834,  10.009915081,   52.8122,  5,  9,  4.3229,  3.1373,  7.6314,  1.1211, -2.2664, -3.8564,  0.00,   0.0
2020/05/12 11:15:11.000,  53.523185139,  10.009760186,   52.7745,  5,  9,  4.3226,  3.1372,  7.6315,  1.1205, -2.2658, -3.8559,  0.00,   0.0
2020/05/12 11:15:12.000,  53.523206946,  10.009643559,   53.3407,  5,  9,  4.3223,  3.1371,  7.6317,  1.1198, -2.2652, -3.8553,  0.00,   0.0
2020/05/12 11:15:13.000,  53.523228205,  10.009540023,   53.4468,  5,  9,  4.3220,  3.1370,  7.6319,  1.1192, -2.2646, -3.8548,  0.00,   0.0
